"OBJECTID","ACRES","STATE","FIRE_NAME","YEAR","STARTMONTH","STARTDAY","FIRE_TYPE","LATITUDE","LONGITUDE"
1,8479,"AK","KUYUKUTUK",1984,7,3,"Wildfire",62.013,-161.628
2,37083,"AK","WAPOO FIRE",1984,6,9,"Wildfire",63.757,-157.537
3,1399,"AK","414060",1984,6,23,"Wildfire",63.795,-155.029
4,10243,"AK","MUD FIRE",1984,6,6,"Wildfire",63.93,-157.527
5,1897,"AK","GLACIER CREEK",1984,6,7,"Wildfire",64.482,-144.673
6,2756,"AK","TAL SW 37",1984,6,23,"Wildfire",64.589,-152.757
7,1689,"AK","414057",1984,7,2,"Wildfire",64.957,-162.693
8,3169,"AK","414008",1984,6,11,"Wildfire",65.354,-154.572
9,3156,"AK","HSL S 10",1984,7,3,"Wildfire",65.528,-156.433
10,1258,"AK","TAL NE 36",1984,6,19,"Wildfire",65.627,-150.902
11,1964,"AK","414012",1984,6,18,"Wildfire",66.217,-152.356
12,1990,"AK","HUS NW 30",1984,6,17,"Wildfire",66.409,-155.202
13,1487,"AK","DCK SSW 35",1984,6,24,"Wildfire",66.453,-157.324
14,6723,"AK","IAN N 55",1984,6,25,"Wildfire",67.933,-160.878
15,1775,"AK","WTK NE 50",1984,6,25,"Wildfire",68.071,-160.654
16,5358,"AZ","CHANDLER",1984,9,26,"Wildfire",33.169,-111.952
17,1171,"AZ","PRINCE",1984,5,30,"Wildfire",33.174,-112.11
18,1060,"AZ","DRAGONFIRE",1984,8,7,"Wildfire",33.175,-112.033
19,1839,"AZ","BLACK",1984,5,29,"Wildfire",33.914,-111.583
20,1260,"AZ","SANDERSON",1984,6,14,"Wildfire",35.366,-111.932
21,3021,"CA","PROCTOR",1984,4,21,"Wildfire",32.682,-116.886
22,3073,"CA","BOWLES",1984,9,6,"Wildfire",32.945,-116.935
23,5564,"CA","AGUANGA",1984,5,30,"Wildfire",33.413,-116.873
24,1384,"CA","LOMA RIDGE",1984,6,15,"Wildfire",33.75,-117.729
25,4130,"CA","LOST HORSE",1984,5,31,"Wildfire",34.023,-116.255
26,2442,"CA","LYTLE",1984,5,28,"Wildfire",34.285,-117.554
27,10917,"CA","GRIMES FIRE",1984,5,7,"Wildfire",34.331,-118.964
28,6049,"CA","SQUAW FLAT",1984,10,15,"Wildfire",34.443,-118.896
29,1035,"CA","SCUDDER BURN",1984,6,22,"Prescribed Fire",34.449,-118.48
30,1479,"CA","MESCAL",1984,7,6,"Wildfire",34.452,-117.726
31,3554,"CA","SHANNON FIRE",1984,5,29,"Wildfire",34.552,-118.183
32,2458,"CA","STODDARD 2",1984,5,12,"Wildfire",34.701,-117.075
33,3159,"CA","MINUTEMAN",1984,5,7,"Wildfire",34.807,-120.501
34,1539,"CA","UNNAMED",1984,6,30,"Unknown",34.856,-118.586
35,1977,"CA","BLUE",1984,8,10,"Wildfire",34.905,-119.286
36,1777,"CA","SHELL PEAK",1984,5,28,"Prescribed Fire",35.097,-120.154
37,2053,"CA","UNNAMED",1984,6,21,"Unknown",35.141,-120.204
38,1622,"CA","BONNHEIM",1984,6,29,"Wildfire",35.197,-120.394
39,1910,"CA","UNNAMED",1984,6,21,"Unknown",35.253,-119.486
40,1585,"CA","MORETZZ",1984,5,29,"Wildfire",35.253,-120.547
41,6009,"CA","TWISSELMAN",1984,8,19,"Wildfire",35.396,-119.833
42,1059,"CA","UNNAMED",1984,6,21,"Unknown",35.499,-118.886
43,23189,"CA","BODFISH",1984,7,7,"Wildfire",35.579,-118.388
44,1118,"CA","WOODROW",1984,5,26,"Wildfire",35.611,-118.446
45,3020,"CA","UNNAMED",1984,6,28,"Unknown",35.766,-120.755
46,6693,"CA","FLAT TOP",1984,5,25,"Wildfire",35.899,-120.134
47,23122,"CA","UNNAMED",1984,6,28,"Unknown",35.929,-121.234
48,10420,"CA","UNNAMED",1984,6,28,"Unknown",36.05,-121.293
49,1462,"CA","FK 1817",1984,3,29,"Wildfire",36.074,-120.188
50,1219,"CA","UNNAMED",1984,6,28,"Unknown",36.208,-121.052
51,1136,"CA","OIL FIELDS",1984,5,25,"Wildfire",36.26,-120.317
52,1225,"CA","UNNAMED",1984,6,28,"Unknown",36.269,-121.29
53,1566,"CA","BLUE RIDGE",1984,8,21,"Wildfire",36.314,-118.869
54,2987,"CA","BAR-O",1984,8,29,"Wildfire",36.406,-118.848
55,1596,"CA","UNNAMED",1984,6,30,"Unknown",36.46,-117.363
56,1306,"CA","BEAR CREEK",1984,10,10,"Wildfire",36.51,-118.882
57,5588,"CA","UNNAMED",1984,6,30,"Unknown",36.55,-117.449
58,12103,"CA","BONANZA",1984,6,2,"Wildfire",36.744,-120.941
59,1231,"CA","PACHECO 2",1984,7,5,"Wildfire",36.883,-121.158
60,1409,"CA","COTTONWOOD",1984,5,21,"Wildfire",37.098,-121.162
61,1771,"CA","UNNAMED",1984,11,3,"Unknown",37.642,-120.008
62,6911,"CA","SITE 300 3",1984,6,28,"Wildfire",37.651,-121.474
63,2033,"CA","UNNAMED",1984,7,30,"Unknown",37.933,-120.383
64,4837,"CA","SALT SPRING",1984,6,24,"Wildfire",38.004,-120.647
65,1775,"CA","BEAR MTN. 3",1984,9,12,"Prescribed Fire",38.164,-120.731
66,2823,"CA","TERHEL VMP",1984,11,28,"Prescribed Fire",38.985,-122.44
67,1846,"CA","HUFFMASTER VMP",1984,11,28,"Prescribed Fire",39.27,-122.453
68,1470,"CA","CLARK VALLEY",1984,10,24,"Wildfire",39.392,-122.451
69,6012,"CA","BIDWELL",1984,7,2,"Wildfire",39.784,-121.696
70,2672,"CA","UNNAMED",1984,7,5,"Unknown",39.951,-121.804
71,2868,"CA","LOWERY",1984,7,12,"Wildfire",39.981,-122.591
72,2795,"CA","BRUSHY",1984,9,7,"Wildfire",40.011,-121.817
73,1201,"CA","SECOND",1984,8,21,"Wildfire",40.034,-120.14
74,3979,"CA","TURTLE",1984,7,5,"Wildfire",40.078,-120.066
75,3448,"CA","UNNAMED",1984,9,7,"Unknown",40.116,-121.872
76,1113,"CA","BADGER",1984,8,23,"Wildfire",40.548,-121.407
77,2415,"CA","DANIELS",1984,10,5,"Prescribed Fire",40.647,-121.975
78,21482,"CA","TWIN",1984,7,6,"Wildfire",40.683,-119.994
79,1734,"CA","EAGLE",1984,8,9,"Wildfire",41.26,-120.12
80,3025,"CA","RAIL",1984,8,13,"Wildfire",41.923,-120.65
81,1335,"CO","UNNAMED",1984,7,6,"Unknown",37.655,-108.647
82,2843,"FL","DONUT SW",1984,11,2,"Prescribed Fire",25.363,-80.694
83,2484,"FL","EAST BNDY",1984,11,19,"Prescribed Fire",25.479,-80.675
84,1171,"FL","LOSTMAN 3",1984,8,17,"Prescribed Fire",25.71,-81.065
85,1382,"FL","UNNAMED",1984,6,24,"Unknown",25.942,-80.402
86,608,"FL","UNNAMED",1984,11,6,"Wildfire",26.129,-81.464
87,3302,"FL","UNNAMED",1984,7,26,"Unknown",26.275,-80.564
88,1117,"FL","UNNAMED",1984,11,11,"Wildfire",26.323,-80.793
89,823,"FL","UNNAMED",1984,6,24,"Unknown",26.323,-80.869
90,2224,"FL","UNNAMED",1984,8,13,"Wildfire",26.345,-80.847
91,17967,"FL","UNNAMED",1984,12,17,"Unknown",26.399,-80.456
92,1625,"FL","UNNAMED",1984,12,17,"Wildfire",26.407,-80.696
93,4631,"FL","UNNAMED",1984,12,17,"Unknown",26.442,-80.864
94,1767,"FL","UNNAMED",1984,8,11,"Unknown",26.544,-80.422
95,1170,"FL","UNNAMED",1984,5,14,"Unknown",26.779,-81.578
96,1640,"FL","UNNAMED",1984,12,8,"Unknown",26.832,-81.846
97,848,"FL","UNNAMED",1984,12,24,"Unknown",26.842,-81.923
98,3311,"FL","UNNAMED",1984,12,24,"Unknown",26.891,-81.885
99,1205,"FL","UNNAMED",1984,12,24,"Unknown",27.188,-81.717
100,927,"FL","UNNAMED",1984,12,24,"Unknown",27.431,-81.026
101,908,"FL","UNNAMED",1984,12,8,"Unknown",27.622,-81.701
102,1277,"FL","UNNAMED",1984,12,8,"Unknown",27.758,-81.282
103,1067,"FL","UNNAMED",1984,12,24,"Wildfire",27.76,-81.418
104,759,"FL","UNNAMED",1984,11,6,"Unknown",27.85,-81.385
105,981,"FL","UNNAMED",1984,12,8,"Unknown",27.891,-80.892
106,1296,"FL","UNNAMED",1984,12,24,"Unknown",27.898,-80.916
107,2039,"FL","UNNAMED",1984,11,6,"Unknown",27.912,-81.026
108,591,"FL","UNNAMED",1984,12,24,"Unknown",27.939,-81.149
109,1210,"FL","UNNAMED",1984,12,8,"Unknown",27.967,-81.134
110,1962,"FL","UNNAMED",1984,12,24,"Wildfire",28.03,-81.15
111,1203,"FL","UNNAMED",1984,12,24,"Unknown",28.032,-80.981
112,770,"FL","UNNAMED",1984,12,24,"Unknown",28.044,-80.893
113,886,"FL","UNNAMED",1984,12,8,"Unknown",28.062,-81.411
114,7765,"FL","UNNAMED",1984,11,6,"Unknown",28.067,-81.04
115,1433,"FL","UNNAMED",1984,12,24,"Unknown",28.07,-81.14
116,597,"FL","UNNAMED",1984,12,24,"Unknown",28.107,-81.168
117,836,"FL","SCHWARTZ GROVE",1984,4,18,"Wildfire",28.549,-80.65
118,2321,"FL","BOMBING RANGE",1984,5,19,"Wildfire",29.129,-81.7
119,2220,"FL","UNNAMED",1984,11,11,"Unknown",29.888,-84.781
120,1055,"FL","UNNAMED",1984,9,8,"Unknown",29.97,-85.434
121,904,"FL","UNNAMED",1984,9,8,"Unknown",30.029,-84.92
122,1141,"FL","UNNAMED",1984,9,8,"Unknown",30.272,-85.717
123,1653,"FL","UNNAMED",1984,11,11,"Unknown",30.352,-85.36
124,1615,"ID","MAGICWATER",1984,7,19,"Wildfire",42.641,-114.947
125,2488,"ID","HOLEN ROCK",1984,6,28,"Wildfire",42.655,-115.93
126,1405,"ID","BLUE BUTTE",1984,7,27,"Wildfire",42.712,-115.415
127,2463,"ID","HOT CREEK",1984,6,24,"Wildfire",42.798,-115.812
128,7549,"ID","BROWNS GULCH",1984,7,13,"Wildfire",42.885,-115.468
129,1331,"ID","BIRCH CR",1984,7,12,"Wildfire",43.023,-116.211
130,2233,"ID","SMALL ARMS",1984,7,20,"Wildfire",43.102,-115.816
131,4136,"ID","GUARD I",1984,7,11,"Wildfire",43.119,-116.118
132,1001,"ID","HILLTOP",1984,7,17,"Wildfire",43.413,-112.572
133,1132,"ID","UNNAMED",1984,8,4,"Wildfire",45.737,-114.722
134,901,"ME","UNNAMED",1984,5,1,"Wildfire",44.58,-67.604
135,1693,"MI","RIVER ROAD",1984,4,28,"Wildfire",44.42,-83.395
136,610,"MO","UNNAMED",1984,4,25,"Wildfire",37.031,-91.397
137,1014,"MO","UNNAMED",1984,5,22,"Unknown",37.78,-91.488
138,1597,"MT","KIRBY",1984,8,26,"Wildfire",45.336,-106.958
139,3617,"MT","LAKE CREEK",1984,9,18,"Wildfire",45.617,-106.323
140,2667,"MT","WHEATWELL",1984,8,27,"Wildfire",45.719,-105.838
141,157778,"MT","HAWK CREEK",1984,8,25,"Wildfire",46.258,-108.272
142,27162,"MT","NORTH HILL",1984,8,27,"Wildfire",46.805,-111.894
143,1055,"MT","RED OWL",1984,8,27,"Wildfire",48.041,-113.898
144,13113,"MT","HOUGHTON CREEK II",1984,8,15,"Wildfire",48.05,-115.258
145,3255,"MT","CRYSTAL CREEK",1984,8,27,"Wildfire",48.42,-113.697
146,3680,"MT","NAPI PEAK",1984,8,19,"Wildfire",48.804,-113.458
147,599,"NJ","UNNAMED",1984,4,20,"Prescribed Fire",39.905,-74.491
148,3490,"NV","UNNAMED",1984,6,7,"Unknown",36.965,-116.264
149,6559,"NV","UNNAMED",1984,6,23,"Unknown",37.296,-116.699
150,16689,"NV","SEAMEN 1",1984,5,31,"Wildfire",37.745,-115.222
151,16990,"NV","INDIAN",1984,6,28,"Wildfire",38.817,-119.693
152,4101,"NV","MCCOY",1984,7,3,"Wildfire",39.364,-114.514
153,10037,"NV","MITCHELL CANYON",1984,6,28,"Wildfire",39.613,-119.996
154,4413,"NV","PETERSON",1984,7,6,"Wildfire",39.774,-119.989
155,16832,"NV","FREDS MT 2",1984,7,14,"Wildfire",39.781,-119.876
156,1789,"NV","QUAIL",1984,8,14,"Wildfire",39.84,-119.568
157,6289,"NV","BFDELL 3",1984,7,5,"Wildfire",39.849,-119.892
158,9035,"NV","DRY VALLEY",1984,6,17,"Wildfire",40.279,-119.825
159,4427,"NV","CRESENT",1984,8,3,"Wildfire",40.438,-116.462
160,2200,"NV","EMPIRE",1984,6,25,"Wildfire",40.48,-119.303
161,3958,"NV","FIRE CREEK",1984,6,26,"Wildfire",40.491,-116.569
162,2069,"NV","BUFFALO",1984,5,30,"Wildfire",40.683,-119.764
163,4327,"NV","JUPITER",1984,7,18,"Wildfire",40.715,-117.794
164,38483,"NV","IZEN 1",1984,8,30,"Wildfire",40.997,-116.95
165,6184,"NV","BOX SPRG",1984,8,4,"Wildfire",41.187,-117.438
166,3401,"NV","SILVER",1984,8,23,"Wildfire",41.205,-117.806
167,29358,"NV","BULLHEAD",1984,7,6,"Wildfire",41.471,-117.205
168,5318,"NV","LENRD CRK",1984,6,24,"Wildfire",41.527,-118.748
169,6808,"NV","COYOTE",1984,7,11,"Wildfire",41.593,-118.196
170,1048,"OK","RESIDENT",1984,2,21,"Wildfire",36.982,-94.656
171,12107,"OR","SAND HILL",1984,7,5,"Wildfire",42.002,-118.505
172,3042,"OR","CALDERWOOD",1984,7,26,"Wildfire",42.239,-119.783
173,1417,"OR","UNNAMED",1984,6,28,"Wildfire",42.297,-118.918
174,7946,"OR","ABERT",1984,8,9,"Wildfire",42.588,-120.181
175,11784,"OR","COYOTE",1984,8,9,"Wildfire",42.624,-119.993
176,35390,"OR","RABBIT 2",1984,8,9,"Wildfire",42.673,-119.84
177,7118,"OR","ROCK CRK",1984,8,4,"Wildfire",42.764,-119.265
178,2555,"OR","STEENS 1",1984,8,12,"Wildfire",42.776,-118.786
179,4312,"OR","WALLS LAKE",1984,7,9,"Wildfire",42.838,-119.116
180,2283,"OR","SAUNDERS",1984,8,9,"Wildfire",42.963,-120.214
181,16896,"OR","FOLLY FARM",1984,8,4,"Wildfire",43.009,-118.159
182,9697,"OR","SHEEP CAMP",1984,8,10,"Wildfire",43.033,-119.9
183,3622,"OR","DIAMOND",1984,7,26,"Wildfire",43.13,-118.792
184,1627,"OR","EGLIRIM",1984,7,11,"Wildfire",43.157,-120.76
185,5322,"OR","L JUNIPER",1984,8,4,"Wildfire",43.19,-119.952
186,8528,"OR","BUFFALO",1984,8,9,"Wildfire",43.196,-120.325
187,1902,"OR","PIUTE",1984,8,23,"Wildfire",43.237,-118.014
188,2198,"OR","SWAMP CK",1984,8,2,"Wildfire",43.342,-118.148
189,1993,"OR","S LOCKIT",1984,8,11,"Wildfire",45.467,-120.843
190,1113,"OR","WILLOWS",1984,8,9,"Wildfire",45.747,-120.024
191,2691,"SD","SANDOZ",1984,9,6,"Wildfire",43.084,-102.85
192,1267,"SD","WALL",1984,8,15,"Wildfire",44.009,-102.308
193,2019,"UT","GRASS COVE",1984,6,19,"Wildfire",38.706,-113.567
194,9309,"UT","DESERT",1984,7,8,"Wildfire",39.77,-112.578
195,3031,"WA","HAMBRE MT",1984,10,17,"Wildfire",46.289,-120.403
196,122914,"WA","HANFORD",1984,8,12,"Wildfire",46.427,-119.569
197,1996,"WA","VERNITA BR",1984,5,30,"Wildfire",46.655,-119.663
198,7382,"AK","SELATNA",1985,7,30,"Wildfire",62.449,-155.668
199,5489,"AK","SUGARLOAF",1985,7,20,"Wildfire",62.562,-156.645
200,4780,"AK","CAMELBACK",1985,8,1,"Wildfire",62.603,-157.421
201,9522,"AK","KATLITNA",1985,8,3,"Wildfire",62.836,-155.432
202,7295,"AK","531021",1985,7,28,"Wildfire",62.937,-157.888
203,1692,"AK","HARRY",1985,8,3,"Wildfire",63.287,-154.368
204,1300,"AK","531028",1985,8,1,"Wildfire",64.311,-156.993
205,34216,"AK","531035",1985,7,31,"Wildfire",64.627,-154.051
206,1298,"AK","GAL NE 48",1985,8,3,"Wildfire",65.21,-155.265
207,33126,"AK","GAL NE 57",1985,7,13,"Wildfire",65.439,-155.451
208,1491,"AK","TAL NW 44",1985,8,1,"Wildfire",65.476,-153.829
209,79003,"AK","531047",1985,8,6,"Wildfire",65.905,-145.495
210,1312,"AK","HOG SW 23",1985,8,7,"Wildfire",65.907,-155.012
211,14289,"AK","HUS NW 23",1985,7,31,"Wildfire",65.997,-155.13
212,16816,"AK","TAL NW 85",1985,7,31,"Wildfire",66.265,-154.503
213,12151,"AK","531023",1985,7,15,"Wildfire",66.541,-146.701
214,54920,"AK","531018",1985,7,25,"Wildfire",66.695,-142.825
215,5117,"AK","531053",1985,7,17,"Wildfire",67.126,-142.054
216,35140,"AK","FYU NE 80",1985,7,30,"Wildfire",67.557,-143.255
217,5780,"AK","OTZ NE 100",1985,8,7,"Wildfire",68.063,-159.436
218,1456,"AK","WAY UP N 2",1985,8,9,"Wildfire",69.222,-154.306
219,598,"AL","UNNAMED",1985,4,18,"Wildfire",33.376,-86.894
220,1397,"AL","UNNAMED",1985,4,4,"Wildfire",33.985,-85.404
221,514,"AL","STATED0003",1985,3,8,"Wildfire",34.415,-85.616
222,798,"AL","STATED0005",1985,3,6,"Wildfire",34.463,-85.599
223,3498,"AZ","UNNAMED",1985,6,14,"Unknown",31.478,-111.433
224,1326,"AZ","UNNAMED",1985,3,2,"Wildfire",31.783,-110.662
225,1075,"AZ","UNNAMED",1985,7,9,"Unknown",32.549,-110.192
226,1258,"AZ","WHITLOCK",1985,7,4,"Wildfire",32.598,-109.204
227,1027,"AZ","UNNAMED",1985,7,9,"Unknown",32.613,-110.022
228,1032,"AZ","VEACH",1985,7,13,"Wildfire",32.649,-109.752
229,1629,"AZ","MAPLE",1985,6,13,"Wildfire",33.352,-109.082
230,1226,"AZ","RAINBOW",1985,10,25,"Wildfire",36.323,-112.325
231,7809,"CA","MILLER",1985,6,30,"Wildfire",32.699,-116.927
232,1012,"CA","SYCAMORE",1985,7,27,"Wildfire",32.932,-116.947
233,7453,"CA","ROBLAR",1985,7,1,"Wildfire",33.4,-117.342
234,1062,"CA","UNNAMED",1985,10,4,"Wildfire",33.413,-117.389
235,14091,"CA","CABANZO",1985,6,27,"Wildfire",33.867,-116.633
236,1425,"CA","SHELL",1985,8,11,"Wildfire",33.919,-117.784
237,5280,"CA","PIUMA FIRE",1985,10,14,"Wildfire",34.06,-118.682
238,6709,"CA","DECKER",1985,10,14,"Wildfire",34.071,-118.917
239,3897,"CA","SHERWOOD FIRE",1985,6,30,"Wildfire",34.117,-118.857
240,1247,"CA","BOX CANYON (PIONEER) FIRE",1985,10,14,"Wildfire",34.249,-118.654
241,1992,"CA","PEACH HILL",1985,10,14,"Wildfire",34.252,-118.928
242,2425,"CA","HUMMINGBIRD",1985,10,14,"Wildfire",34.284,-118.648
243,46724,"CA","FERNDALE",1985,10,14,"Wildfire",34.413,-119.149
244,1250,"CA","BLACK MOUNTAIN",1985,7,3,"Wildfire",34.43,-119.22
245,126854,"CA","WHEELER 2",1985,7,1,"Wildfire",34.51,-119.354
246,2620,"CA","UNNAMED",1985,5,23,"Wildfire",34.54,-119.615
247,2720,"CA","UNNAMED",1985,9,12,"Wildfire",34.604,-119.919
248,1112,"CA","UNNAMED",1985,9,12,"Wildfire",34.814,-120.335
249,2356,"CA","UNNAMED",1985,7,26,"Wildfire",35.044,-120.056
250,75841,"CA","LAS PILITAS",1985,7,1,"Wildfire",35.287,-120.506
251,1054,"CA","ADELAIDE",1985,5,3,"Wildfire",35.443,-118.777
252,8141,"CA","RICH BAR",1985,6,28,"Wildfire",35.458,-118.707
253,7265,"CA","UNNAMED",1985,8,3,"Wildfire",35.857,-121.391
254,1519,"CA","UNNAMED",1985,7,17,"Wildfire",35.861,-120.561
255,2708,"CA","LOWES",1985,7,2,"Wildfire",35.903,-120.563
256,3139,"CA","BIG SANDY",1985,7,6,"Wildfire",35.994,-120.575
257,1290,"CA","TULARE 4",1985,7,12,"Wildfire",36.011,-118.797
258,8561,"CA","WIZARD",1985,6,5,"Wildfire",36.024,-121.382
259,5071,"CA","ANDREWS",1985,7,6,"Wildfire",36.037,-120.559
260,41654,"CA","CHERRY",1985,7,8,"Wildfire",36.065,-121.165
261,52474,"CA","GORDA-RAT",1985,7,6,"Wildfire",36.066,-121.461
262,2094,"CA","SECO",1985,7,2,"Wildfire",36.227,-121.44
263,1594,"CA","PINEY CREEK",1985,6,10,"Wildfire",36.348,-121.467
264,20357,"CA","LOSGATOSIV",1985,7,6,"Wildfire",36.379,-120.583
265,1298,"CA","BUMB",1985,5,26,"Wildfire",36.623,-120.979
266,2882,"CA","SUGARLOAF",1985,7,28,"Wildfire",36.715,-118.662
267,7508,"CA","PONOCHE 2",1985,6,9,"Wildfire",36.727,-120.768
268,8583,"CA","ONION",1985,7,6,"Wildfire",36.739,-118.252
269,1656,"CA","DOUGHERTY",1985,6,25,"Wildfire",36.959,-118.626
270,11597,"CA","LEXINGTON",1985,7,7,"Wildfire",37.141,-121.918
271,1875,"CA","FINLEY",1985,7,8,"Wildfire",37.158,-121.576
272,1091,"CA","BRICEBURG",1985,8,2,"Wildfire",37.632,-119.958
273,3067,"CA","OWENS",1985,8,8,"Wildfire",37.768,-118.817
274,1079,"CA","PATEVALLEY",1985,6,30,"Wildfire",37.93,-119.571
275,1008,"CA","GANN",1985,7,4,"Wildfire",38.095,-120.754
276,1473,"CA","BEAR MTN. 4",1985,9,17,"Prescribed Fire",38.156,-120.739
277,1731,"CA","UNNAMED",1985,8,2,"Unknown",38.163,-120.73
278,2027,"CA","MILLER",1985,8,31,"Wildfire",38.446,-122.093
279,5339,"CA","BALD MT.",1985,10,8,"Wildfire",38.746,-122.103
280,2042,"CA","HIDDEN VALLEY",1985,9,7,"Wildfire",38.805,-122.527
281,9655,"CA","UNNAMED",1985,6,13,"Wildfire",38.859,-122.856
282,2427,"CA","HAL JNCT 2",1985,7,8,"Wildfire",39.769,-120.013
283,1169,"CA","ROCK CREEK",1985,6,11,"Wildfire",39.851,-121.772
284,1651,"CA","UNNAMED",1985,7,16,"Wildfire",40.296,-120.069
285,1358,"CA","SKEDADDLE",1985,5,19,"Wildfire",40.305,-120.158
286,2495,"CA","BASS HILL",1985,8,7,"Wildfire",40.343,-120.52
287,4627,"CA","BLUE MTN. WEST",1985,8,27,"Prescribed Fire",40.564,-121.969
288,1201,"CA","MURRER",1985,7,8,"Wildfire",40.592,-120.689
289,2415,"CA","UNNAMED",1985,6,29,"Unknown",40.647,-121.975
290,4077,"CA","TRELOAR COMPLEX",1985,7,26,"Wildfire",40.808,-123.214
291,1657,"CA","DELTA",1985,7,18,"Wildfire",40.956,-122.452
292,1020,"CO","UNNAMED",1985,6,21,"Wildfire",40.451,-108.151
293,1244,"CO","SHAME",1985,10,6,"Wildfire",40.75,-107.801
294,8523,"FL","EASTBNDY",1985,11,8,"Prescribed Fire",25.442,-80.627
295,985,"FL","DOF 03",1985,10,13,"Wildfire",25.571,-80.589
296,697,"FL","UNNAMED",1985,2,3,"Unknown",25.592,-80.564
297,523,"FL","UNNAMED",1985,5,26,"Unknown",25.597,-81.166
298,1518,"FL","UNNAMED",1985,6,11,"Unknown",25.659,-80.542
299,1068,"FL","UNNAMED",1985,6,11,"Wildfire",25.688,-80.508
300,1529,"FL","NORTH BNDY",1985,2,8,"Prescribed Fire",25.733,-80.684
301,663,"FL","UNNAMED",1985,6,11,"Unknown",25.748,-80.619
302,1267,"FL","UNNAMED",1985,3,23,"Unknown",25.796,-80.451
303,54638,"FL","UNNAMED",1985,5,26,"Unknown",25.837,-80.527
304,5055,"FL","SOUTH 41",1985,12,18,"Prescribed Fire",25.858,-81.174
305,1779,"FL","UNNAMED",1985,2,19,"Unknown",25.871,-81.165
306,1285,"FL","UNNAMED",1985,2,3,"Unknown",25.986,-80.327
307,1096,"FL","UNNAMED",1985,2,3,"Unknown",25.986,-80.365
308,774,"FL","UNNAMED",1985,5,26,"Unknown",25.991,-80.386
309,1135,"FL","UNNAMED",1985,2,3,"Unknown",26.156,-80.962
310,2107,"FL","UNNAMED",1985,2,3,"Wildfire",26.157,-80.868
311,1114,"FL","UNNAMED",1985,2,3,"Unknown",26.218,-80.635
312,51504,"FL","ALLEY",1985,2,25,"Wildfire",26.222,-80.759
313,35018,"FL","UNNAMED",1985,2,3,"Wildfire",26.268,-80.626
314,1782,"FL","UNNAMED",1985,4,24,"Unknown",26.317,-80.845
315,1893,"FL","UNNAMED",1985,2,3,"Unknown",26.319,-80.717
316,881,"FL","UNNAMED",1985,3,7,"Unknown",26.324,-80.868
317,1172,"FL","UNNAMED",1985,10,8,"Wildfire",26.449,-81.777
318,1783,"FL","UNNAMED",1985,5,26,"Wildfire",26.596,-81.032
319,611,"FL","UNNAMED",1985,2,19,"Unknown",26.615,-81.024
320,1374,"FL","UNNAMED",1985,2,10,"Unknown",26.816,-81.87
321,510,"FL","UNNAMED",1985,2,10,"Wildfire",26.831,-81.935
322,1354,"FL","UNNAMED",1985,1,9,"Unknown",26.856,-81.881
323,730,"FL","UNNAMED",1985,1,9,"Unknown",26.864,-81.94
324,648,"FL","UNNAMED",1985,2,10,"Wildfire",26.869,-81.558
325,4688,"FL","UNNAMED",1985,2,10,"Unknown",26.877,-81.661
326,1186,"FL","UNNAMED",1985,2,10,"Unknown",26.878,-81.424
327,2412,"FL","UNNAMED",1985,2,10,"Unknown",26.906,-81.548
328,907,"FL","UNNAMED",1985,1,9,"Unknown",26.915,-81.95
329,849,"FL","UNNAMED",1985,2,10,"Unknown",26.931,-81.198
330,1585,"FL","UNNAMED",1985,1,9,"Unknown",26.931,-81.895
331,1037,"FL","UNNAMED",1985,2,10,"Unknown",27.008,-82.341
332,536,"FL","UNNAMED",1985,2,10,"Unknown",27.081,-82.091
333,675,"FL","UNNAMED",1985,2,10,"Unknown",27.108,-81.735
334,707,"FL","UNNAMED",1985,6,18,"Wildfire",27.133,-82.23
335,1537,"FL","UNNAMED",1985,2,10,"Unknown",27.136,-81.536
336,2540,"FL","UNNAMED",1985,1,9,"Unknown",27.138,-81.64
337,720,"FL","UNNAMED",1985,2,10,"Unknown",27.141,-81.957
338,3647,"FL","UNNAMED",1985,9,22,"Wildfire",27.152,-82.269
339,3744,"FL","UNNAMED",1985,9,22,"Wildfire",27.154,-82.322
340,3375,"FL","UNNAMED",1985,2,10,"Unknown",27.157,-81.492
341,619,"FL","UNNAMED",1985,2,10,"Unknown",27.182,-81.703
342,2325,"FL","UNNAMED",1985,6,18,"Unknown",27.218,-82.177
343,1443,"FL","UNNAMED",1985,9,22,"Wildfire",27.23,-82.208
344,570,"FL","UNNAMED",1985,2,10,"Unknown",27.241,-82.038
345,1057,"FL","UNNAMED",1985,2,10,"Unknown",27.244,-82.107
346,765,"FL","UNNAMED",1985,2,10,"Wildfire",27.247,-81.099
347,1623,"FL","UNNAMED",1985,1,9,"Unknown",27.26,-81.556
348,1235,"FL","UNNAMED",1985,9,22,"Wildfire",27.26,-82.249
349,621,"FL","UNNAMED",1985,2,10,"Unknown",27.293,-82.019
350,555,"FL","UNNAMED",1985,2,10,"Unknown",27.39,-82.379
351,813,"FL","UNNAMED",1985,2,10,"Unknown",27.399,-80.753
352,532,"FL","UNNAMED",1985,2,10,"Unknown",27.418,-82.341
353,2834,"FL","UNNAMED",1985,2,10,"Unknown",27.502,-81.079
354,654,"FL","UNNAMED",1985,1,9,"Unknown",27.548,-81.577
355,1231,"FL","UNNAMED",1985,2,10,"Unknown",27.583,-81.996
356,1906,"FL","UNNAMED",1985,2,10,"Unknown",27.598,-81.115
357,907,"FL","UNNAMED",1985,2,10,"Unknown",27.609,-82.069
358,2319,"FL","UNNAMED",1985,1,9,"Unknown",27.615,-82.015
359,829,"FL","UNNAMED",1985,2,10,"Unknown",27.617,-82.37
360,4475,"FL","UNNAMED",1985,2,10,"Unknown",27.622,-81.075
361,1191,"FL","UNNAMED",1985,2,10,"Unknown",27.626,-80.692
362,1032,"FL","UNNAMED",1985,1,9,"Unknown",27.632,-81.218
363,672,"FL","UNNAMED",1985,1,9,"Unknown",27.655,-81.646
364,1976,"FL","UNNAMED",1985,2,10,"Unknown",27.656,-81.188
365,973,"FL","UNNAMED",1985,2,10,"Unknown",27.666,-81.322
366,817,"FL","UNNAMED",1985,2,10,"Unknown",27.669,-81.682
367,1042,"FL","UNNAMED",1985,2,10,"Unknown",27.676,-81.003
368,3842,"FL","UNNAMED",1985,1,9,"Wildfire",27.69,-81.198
369,1562,"FL","UNNAMED",1985,2,10,"Wildfire",27.699,-80.832
370,1726,"FL","UNNAMED",1985,2,10,"Unknown",27.699,-81.303
371,602,"FL","UNNAMED",1985,2,10,"Unknown",27.699,-81.348
372,1139,"FL","UNNAMED",1985,12,27,"Unknown",27.7,-80.854
373,1589,"FL","UNNAMED",1985,2,10,"Unknown",27.721,-81.278
374,748,"FL","UNNAMED",1985,1,9,"Unknown",27.725,-80.866
375,886,"FL","UNNAMED",1985,2,19,"Unknown",27.741,-80.608
376,901,"FL","UNNAMED",1985,2,10,"Unknown",27.752,-81.238
377,534,"FL","UNNAMED",1985,2,10,"Unknown",27.752,-81.376
378,624,"FL","UNNAMED",1985,2,10,"Wildfire",27.756,-81.423
379,1415,"FL","UNNAMED",1985,2,10,"Unknown",27.789,-81.067
380,536,"FL","UNNAMED",1985,1,9,"Unknown",27.806,-80.958
381,1187,"FL","UNNAMED",1985,1,9,"Unknown",27.81,-80.594
382,976,"FL","UNNAMED",1985,1,9,"Unknown",27.84,-80.537
383,3131,"FL","UNNAMED",1985,1,9,"Unknown",27.865,-80.919
384,2598,"FL","UNNAMED",1985,1,9,"Unknown",27.872,-81.117
385,667,"FL","UNNAMED",1985,2,10,"Unknown",27.898,-81.098
386,641,"FL","UNNAMED",1985,2,10,"Unknown",27.93,-81.151
387,614,"FL","UNNAMED",1985,2,10,"Unknown",27.972,-81.135
388,911,"FL","UNNAMED",1985,1,9,"Unknown",27.972,-81.17
389,973,"FL","UNNAMED",1985,9,1,"Wildfire",27.992,-81.107
390,634,"FL","UNNAMED",1985,2,10,"Unknown",28.011,-81.075
391,4370,"FL","UNNAMED",1985,1,9,"Unknown",28.016,-81.327
392,1143,"FL","UNNAMED",1985,2,10,"Unknown",28.024,-80.864
393,777,"FL","UNNAMED",1985,12,27,"Unknown",28.062,-81.078
394,1529,"FL","UNNAMED",1985,2,10,"Unknown",28.071,-81.117
395,1646,"FL","UNNAMED",1985,2,10,"Unknown",28.074,-81.17
396,2231,"FL","UNNAMED",1985,2,10,"Unknown",28.084,-80.951
397,889,"FL","UNNAMED",1985,1,9,"Wildfire",28.093,-81.168
398,1131,"FL","UNNAMED",1985,2,10,"Unknown",28.1,-81.41
399,1084,"FL","UNNAMED",1985,1,9,"Unknown",28.107,-81.289
400,882,"FL","UNNAMED",1985,2,10,"Unknown",28.163,-82.242
401,2429,"FL","UNNAMED",1985,2,10,"Unknown",28.186,-82.089
402,1027,"FL","UNNAMED",1985,5,17,"Wildfire",28.187,-80.744
403,934,"FL","UNNAMED",1985,2,10,"Unknown",28.193,-82.316
404,798,"FL","UNNAMED",1985,2,10,"Wildfire",28.194,-81.152
405,706,"FL","UNNAMED",1985,2,10,"Unknown",28.213,-82.097
406,1004,"FL","UNNAMED",1985,2,10,"Unknown",28.279,-81.999
407,1284,"FL","UNNAMED",1985,2,10,"Wildfire",28.374,-81.942
408,1638,"FL","UNNAMED",1985,2,10,"Unknown",28.405,-81.979
409,1093,"FL","UNNAMED",1985,5,17,"Unknown",28.433,-80.938
410,881,"FL","UNNAMED",1985,5,17,"Wildfire",28.438,-81.956
411,1205,"FL","UNNAMED",1985,2,10,"Wildfire",28.44,-80.847
412,648,"FL","UNNAMED",1985,2,10,"Wildfire",28.455,-80.821
413,640,"FL","UNNAMED",1985,5,17,"Wildfire",28.838,-81.012
414,8382,"FL","UNNAMED",1985,6,2,"Wildfire",28.982,-81.016
415,1712,"FL","DEAN",1985,5,17,"Wildfire",29.084,-81.609
416,3908,"FL","UNNAMED",1985,6,2,"Wildfire",29.091,-81.108
417,2971,"FL","RANGE",1985,5,17,"Wildfire",29.172,-81.586
418,2824,"FL","RIVERRD/HENDERSON",1985,5,17,"Wildfire",29.18,-81.924
419,19129,"FL","UNNAMED",1985,6,2,"Wildfire",29.216,-81.173
420,1107,"FL","UNNAMED",1985,5,18,"Wildfire",29.338,-81.862
421,710,"FL","UNNAMED",1985,5,17,"Unknown",29.361,-81.949
422,9558,"FL","UNNAMED",1985,6,2,"Wildfire",29.426,-81.203
423,9807,"FL","UNNAMED",1985,6,2,"Wildfire",29.518,-81.233
424,544,"FL","UNNAMED",1985,4,4,"Unknown",29.737,-85.204
425,1100,"FL","UNNAMED",1985,5,24,"Wildfire",29.764,-82.215
426,1393,"FL","UNNAMED",1985,2,15,"Unknown",29.783,-85.091
427,817,"FL","UNNAMED",1985,3,19,"Unknown",29.798,-85.233
428,1349,"FL","UNNAMED",1985,5,31,"Wildfire",29.816,-84.756
429,797,"FL","UNNAMED",1985,3,19,"Unknown",29.877,-85.238
430,3627,"FL","UNNAMED",1985,6,2,"Wildfire",29.887,-81.525
431,577,"FL","UNNAMED",1985,4,4,"Wildfire",29.924,-84.888
432,956,"FL","UNNAMED",1985,2,15,"Unknown",29.931,-85.143
433,722,"FL","UNNAMED",1985,6,7,"Unknown",29.957,-84.853
434,1692,"FL","UNNAMED",1985,4,4,"Unknown",29.975,-85.436
435,616,"FL","UNNAMED",1985,6,7,"Unknown",29.978,-85.259
436,1093,"FL","UNNAMED",1985,10,13,"Unknown",29.98,-84.854
437,1120,"FL","UNNAMED",1985,6,2,"Wildfire",29.99,-81.389
438,770,"FL","UNNAMED",1985,1,16,"Unknown",29.999,-83.226
439,1719,"FL","UNNAMED",1985,10,13,"Unknown",30.005,-84.918
440,1917,"FL","UNNAMED",1985,2,15,"Unknown",30.049,-85.199
441,1131,"FL","ORCHID",1985,5,16,"Wildfire",30.064,-85.033
442,669,"FL","UNNAMED",1985,3,19,"Unknown",30.092,-85.336
443,3465,"FL","UNNAMED",1985,5,31,"Wildfire",30.2,-83.583
444,2799,"FL","UNNAMED",1985,10,13,"Unknown",30.21,-85.367
445,724,"FL","UNNAMED",1985,6,25,"Wildfire",30.214,-82.904
446,1686,"FL","UNNAMED",1985,10,13,"Unknown",30.234,-85.309
447,509,"FL","UNNAMED",1985,5,6,"Unknown",30.246,-84.77
448,674,"FL","UNNAMED",1985,3,19,"Unknown",30.298,-85.904
449,25845,"FL","UNNAMED",1985,7,2,"Wildfire",30.3,-83.381
450,546,"FL","UNNAMED",1985,3,19,"Unknown",30.301,-85.786
451,554,"FL","UNNAMED",1985,10,13,"Unknown",30.304,-85.843
452,542,"FL","UNNAMED",1985,10,13,"Unknown",30.315,-85.63
453,2028,"FL","UNNAMED",1985,10,13,"Wildfire",30.318,-85.377
454,527,"FL","UNNAMED",1985,3,19,"Unknown",30.345,-85.796
455,2781,"FL","UNNAMED",1985,9,11,"Unknown",30.345,-86.134
456,874,"FL","UNNAMED",1985,10,13,"Unknown",30.35,-85.985
457,855,"FL","UNNAMED",1985,2,15,"Unknown",30.368,-85.869
458,1359,"FL","UNNAMED",1985,4,4,"Wildfire",30.388,-86.282
459,816,"FL","UNNAMED",1985,4,22,"Unknown",30.409,-82.577
460,650,"FL","UNNAMED",1985,5,6,"Unknown",30.446,-85.747
461,545,"FL","UNNAMED",1985,3,19,"Unknown",30.449,-85.747
462,1108,"FL","UNNAMED",1985,5,24,"Wildfire",30.591,-82.643
463,772,"FL","UNNAMED",1985,4,4,"Wildfire",30.647,-85.713
464,2417,"GA","UNNAMED",1985,3,19,"Unknown",30.864,-84.826
465,1993,"GA","UNNAMED",1985,3,19,"Unknown",30.867,-84.898
466,2233,"GA","UNNAMED",1985,3,19,"Unknown",30.902,-84.776
467,591,"GA","UNNAMED",1985,1,16,"Unknown",30.903,-82.543
468,560,"GA","UNNAMED",1985,5,8,"Unknown",30.98,-82.545
469,545,"GA","UNNAMED",1985,4,27,"Wildfire",31.282,-82.915
470,3116,"GA","UNNAMED",1985,2,18,"Wildfire",31.287,-82.949
471,601,"GA","UNNAMED",1985,1,23,"Wildfire",31.455,-82.509
472,508,"GA","UNNAMED",1985,3,29,"Wildfire",31.707,-82.767
473,847,"GA","UNNAMED",1985,3,25,"Wildfire",31.808,-82.471
474,778,"GA","UNNAMED",1985,4,22,"Unknown",32.108,-81.486
475,2335,"GA","UNNAMED",1985,4,2,"Wildfire",32.257,-81.593
476,975,"GA","UNNAMED",1985,4,22,"Unknown",32.276,-81.288
477,561,"GA","UNNAMED",1985,3,17,"Wildfire",34.488,-85.157
478,5717,"ID","GARAT 2",1985,7,7,"Wildfire",42.021,-116.535
479,4792,"ID","HORSE BSN",1985,7,8,"Wildfire",42.101,-116.654
480,3144,"ID","CLIFF HOLLOW",1985,8,7,"Wildfire",42.137,-113.538
481,26213,"ID","GARAT 1",1985,7,7,"Wildfire",42.201,-116.602
482,20848,"ID","HOUSE CK",1985,8,15,"Wildfire",42.221,-114.963
483,19010,"ID","3 CREEK WELL",1985,7,8,"Wildfire",42.221,-115.378
484,1664,"ID","HELLWELL",1985,7,15,"Wildfire",42.233,-115.105
485,5153,"ID","CEDARDRAW",1985,7,20,"Wildfire",42.272,-115.032
486,1402,"ID","BLACKBUTTE",1985,7,7,"Wildfire",42.292,-115.064
487,1038,"ID","SHEEP CREEK",1985,7,8,"Wildfire",42.362,-114.738
488,7969,"ID","CHERRY SPRINGS",1985,7,15,"Wildfire",42.382,-114.331
489,5079,"ID","COONSKIN",1985,7,13,"Wildfire",42.395,-115.108
490,12472,"ID","W. CLOVER",1985,6,20,"Wildfire",42.41,-115.461
491,6838,"ID","WEST WICK",1985,7,7,"Wildfire",42.413,-116.044
492,4743,"ID","SHEEPSHEAD",1985,7,27,"Wildfire",42.435,-115.521
493,2126,"ID","LILLY",1985,6,19,"Wildfire",42.438,-114.861
494,2888,"ID","W. JUNIPER",1985,7,19,"Wildfire",42.491,-115.193
495,13928,"ID","WINTERCAMP",1985,7,6,"Wildfire",42.494,-115.502
496,62780,"ID","CROWS NEST",1985,7,6,"Wildfire",42.56,-115.359
497,6980,"ID","TERRENCE",1985,8,4,"Wildfire",42.584,-115.879
498,3619,"ID","MAGIC WTR",1985,6,19,"Wildfire",42.616,-115.099
499,2361,"ID","SUGAR CR",1985,6,23,"Wildfire",42.629,-115.855
500,5921,"ID","FARM FIRE",1985,6,19,"Wildfire",42.652,-114.981
501,1890,"ID","MILLER TBL",1985,6,19,"Wildfire",42.687,-115.701
502,3235,"ID","WATERHAUL",1985,6,19,"Wildfire",42.695,-115.296
503,2001,"ID","MINIDOKA 6E",1985,8,18,"Wildfire",42.76,-113.349
504,10546,"ID","HOT CR",1985,7,6,"Wildfire",42.779,-115.774
505,3791,"ID","HAMILTON",1985,6,19,"Wildfire",42.961,-115.644
506,1434,"ID","CJN",1985,6,20,"Wildfire",43.018,-115.988
507,1444,"ID","NARROWS 78",1985,8,26,"Wildfire",43.03,-112.204
508,13903,"ID","BOP",1985,7,7,"Wildfire",43.07,-116.147
509,2432,"ID","HOG FARM",1985,6,15,"Wildfire",43.078,-115.775
510,2063,"ID","D BAR W",1985,8,23,"Wildfire",43.226,-116.315
511,5661,"ID","AGRI-LINE",1985,7,12,"Wildfire",43.273,-116.344
512,5787,"ID","BOWNS",1985,7,6,"Wildfire",43.41,-115.807
513,18622,"ID","BLACKS CK",1985,7,7,"Wildfire",43.425,-116.012
514,2069,"ID","ISAACS",1985,6,23,"Wildfire",43.477,-116.121
515,1861,"ID","GEMCO",1985,7,6,"Wildfire",43.852,-116.674
516,1367,"ID","PAY-GEM",1985,6,28,"Wildfire",43.864,-116.715
517,1535,"ID","TAYLOR WEL",1985,5,5,"Wildfire",44.058,-111.931
518,4872,"ID","SANDHOLLOW",1985,7,7,"Wildfire",44.105,-116.803
519,3743,"ID","EAST BASIN",1985,6,30,"Wildfire",44.331,-114.755
520,5924,"ID","LAKE MOUNTAIN",1985,6,29,"Wildfire",45.042,-114.097
521,14036,"ID","SAVAGE CREEK",1985,7,8,"Wildfire",45.126,-115.549
522,7794,"ID","GOAT",1985,7,15,"Wildfire",45.252,-114.621
523,6844,"ID","FOUNTAIN",1985,7,7,"Wildfire",45.321,-114.599
524,3084,"ID","EBENEZER",1985,7,7,"Wildfire",45.328,-114.502
525,28559,"ID","BUTTE",1985,7,20,"Wildfire",45.372,-114.47
526,15241,"ID","FRENCH CREEK",1985,7,17,"Wildfire",45.403,-116.014
527,5143,"ID","BOISE BAR",1985,7,15,"Wildfire",45.433,-115.482
528,1257,"ID","SHASTA",1985,7,8,"Wildfire",46.227,-114.941
529,2820,"ID","DEAD ELK",1985,7,21,"Wildfire",46.27,-114.51
530,1709,"ID","BIG FLAT CREEK",1985,7,17,"Wildfire",46.363,-114.423
531,994,"LA","U2WF85.03",1985,8,5,"Wildfire",29.819,-93.518
532,1790,"LA","U1WF85-02",1985,5,7,"Wildfire",29.924,-93.477
533,1201,"ME","SUNKEN STR",1985,4,30,"Wildfire",44.844,-67.213
534,1412,"MI","CRAWFORD45",1985,7,14,"Wildfire",44.846,-84.566
535,1068,"MN","UNNAMED",1985,4,10,"Wildfire",45.979,-93.065
536,733,"MN","UNNAMED",1985,10,28,"Wildfire",46.097,-93.698
537,2615,"MN","UNNAMED",1985,3,31,"Wildfire",48.672,-94.549
538,566,"MN","UNNAMED",1985,4,20,"Wildfire",48.855,-96.309
539,6071,"MN","UNNAMED",1985,5,4,"Wildfire",48.982,-96.603
540,2488,"MT","HILLTOP",1985,7,27,"Wildfire",45.651,-106.161
541,1027,"MT","GIBBONS PASS",1985,7,8,"Wildfire",45.72,-113.897
542,1538,"MT","BRONCO SAM",1985,7,28,"Wildfire",45.766,-104.674
543,1853,"MT","PRINTZ RIDGE",1985,7,8,"Wildfire",46.271,-114.3
544,10439,"MT","SANDPOINT",1985,7,3,"Wildfire",46.796,-110.489
545,1159,"MT","WEST GULCH",1985,7,20,"Wildfire",46.823,-109.582
546,1601,"MT","HELLGATE",1985,7,12,"Wildfire",46.852,-113.938
547,5221,"MT","CHARLOTTE PEAK",1985,6,29,"Wildfire",47.557,-113.372
548,570,"NC","UNNAMED",1985,3,14,"Wildfire",33.953,-78.521
549,723,"NC","UNNAMED",1985,4,1,"Wildfire",34.006,-78.446
550,2970,"NC","UNNAMED",1985,4,11,"Wildfire",34.567,-77.713
551,5807,"NC","UNNAMED",1985,4,25,"Wildfire",34.744,-76.967
552,535,"NC","UNNAMED",1985,4,22,"Wildfire",34.813,-78.276
553,587,"NC","UNNAMED",1985,9,4,"Wildfire",34.914,-76.391
554,1128,"NC","UNNAMED",1985,7,7,"Wildfire",34.936,-76.414
555,575,"NC","UNNAMED",1985,4,7,"Wildfire",34.946,-77.592
556,850,"NC","UNNAMED",1985,6,27,"Wildfire",34.979,-76.313
557,782,"NC","BUCK CREEK",1985,7,22,"Wildfire",35.395,-76.369
558,685,"NC","UNNAMED",1985,3,20,"Wildfire",35.662,-82.168
559,110696,"NC","ALLAN ROAD",1985,4,7,"Wildfire",35.695,-76.261
560,4610,"NC","UNNAMED",1985,4,4,"Wildfire",35.706,-81.587
561,816,"NC","SCHOOLHOUSERIDGE",1985,4,4,"Wildfire",36.005,-81.747
562,1064,"NC","UNNAMED",1985,4,4,"Wildfire",36.253,-81.271
563,1091,"NC","UNNAMED",1985,4,2,"Wildfire",36.334,-76.431
564,2299,"NE","MCINTOSH",1985,7,3,"Wildfire",42.622,-103.264
565,3392,"NE","GEISER",1985,7,27,"Wildfire",42.961,-103.654
566,761,"NJ","UNNAMED",1985,3,8,"Prescribed Fire",39.631,-74.41
567,1685,"NJ","UNNAMED",1985,3,1,"Prescribed Fire",39.774,-74.784
568,768,"NJ","UNNAMED",1985,3,1,"Prescribed Fire",39.914,-74.467
569,737,"NJ","UNNAMED",1985,4,19,"Wildfire",40.371,-74.401
570,1822,"NM","TAYLOR",1985,6,30,"Wildfire",32.119,-104.703
571,1763,"NM","VIRDEN",1985,7,2,"Wildfire",32.702,-108.884
572,2104,"NM","UNNAMED",1985,8,26,"Wildfire",33.021,-108.346
573,1998,"NM","SHELLEY",1985,6,1,"Wildfire",33.048,-108.411
574,2425,"NM","UNNAMED",1985,6,13,"Wildfire",33.207,-108.338
575,1023,"NM","CLAYTON",1985,6,25,"Wildfire",33.384,-108.495
576,4461,"NM","IRON",1985,6,19,"Wildfire",33.403,-108.551
577,1585,"NM","WINDMILL",1985,6,21,"Wildfire",33.657,-108.352
578,4755,"NV","GEYSER 2",1985,7,7,"Wildfire",38.484,-114.712
579,1884,"NV","SHEEPCREEK",1985,8,17,"Wildfire",38.683,-114.776
580,8000,"NV","COCOON MTS",1985,7,29,"Wildfire",39.22,-118.519
581,5827,"NV","EASTGATE2",1985,6,20,"Wildfire",39.32,-117.851
582,29290,"NV","GOOSEBERRY",1985,7,7,"Wildfire",39.493,-119.383
583,18177,"NV","HUNGRY VA3",1985,7,8,"Wildfire",39.748,-119.717
584,1226,"NV","NIXON",1985,7,7,"Wildfire",39.828,-119.305
585,9495,"NV","BEDEL FLAT",1985,7,18,"Wildfire",39.836,-119.75
586,12299,"NV","LONG VA",1985,7,8,"Wildfire",39.851,-119.974
587,6753,"NV","CAIN MYN",1985,7,7,"Wildfire",40.047,-117.481
588,13442,"NV","TABLE 2",1985,7,27,"Wildfire",40.08,-116.176
589,6118,"NV","SOU HILLS",1985,5,25,"Wildfire",40.115,-117.778
590,16877,"NV","COTTONWOOD",1985,7,7,"Wildfire",40.128,-117.091
591,15749,"NV","DRY VALLEY",1985,6,19,"Wildfire",40.246,-119.894
592,10226,"NV","BIA 6",1985,6,20,"Wildfire",40.26,-119.664
593,1016,"NV","TROUT CRK",1985,8,17,"Wildfire",40.437,-116.053
594,7026,"NV","EMPIRE",1985,7,6,"Wildfire",40.448,-119.32
595,5108,"NV","SUMMITSPG",1985,7,6,"Wildfire",40.481,-117.62
596,15527,"NV","FIRE CREEK",1985,7,10,"Wildfire",40.537,-116.556
597,2835,"NV","BOBS CREEK",1985,7,7,"Wildfire",40.598,-116.439
598,1861,"NV","STAR",1985,7,28,"Wildfire",40.6,-118.036
599,6482,"NV","LATHAM CK.",1985,8,1,"Wildfire",40.652,-114.779
600,3157,"NV","GRINDSTONE",1985,8,17,"Wildfire",40.669,-115.891
601,41704,"NV","DIXIE",1985,7,6,"Wildfire",40.696,-117.366
602,13792,"NV","BARBERCYN",1985,8,18,"Wildfire",40.704,-117.899
603,11337,"NV","SHEEPCYN",1985,8,17,"Wildfire",40.708,-117.659
604,14867,"NV","VALMY",1985,7,6,"Wildfire",40.754,-117.132
605,3229,"NV","PREMO STN",1985,8,17,"Wildfire",40.789,-116.344
606,4026,"NV","ROSE PK",1985,7,26,"Wildfire",40.801,-117.849
607,2964,"NV","COSGRAVE",1985,8,17,"Wildfire",40.918,-117.702
608,5773,"NV","NDF 9",1985,7,10,"Wildfire",40.928,-116.413
609,1302,"NV","FOX CYN",1985,7,9,"Wildfire",40.981,-119.525
610,40729,"NV","JUNGORD",1985,8,17,"Wildfire",41.006,-117.809
611,14608,"NV","ANTELOPE",1985,7,8,"Wildfire",41.013,-116.501
612,1294,"NV","HALLECK",1985,8,18,"Wildfire",41.027,-115.431
613,15950,"NV","MIDDLEFRK",1985,7,8,"Wildfire",41.029,-119.458
614,4507,"NV","CLEMENTINE",1985,7,27,"Wildfire",41.043,-116.681
615,39343,"NV","ROCK CRK 2",1985,7,6,"Wildfire",41.072,-116.794
616,1798,"NV","GOBEL",1985,7,26,"Wildfire",41.087,-114.909
617,12087,"NV","PETIT",1985,6,28,"Wildfire",41.104,-117.272
618,15854,"NV","SILVER CLD",1985,7,14,"Wildfire",41.135,-116.633
619,15742,"NV","EDEN 1",1985,8,17,"Wildfire",41.138,-117.465
620,1245,"NV","KELLEY2",1985,7,28,"Wildfire",41.153,-117.141
621,2018,"NV","CLOVER RCH",1985,8,17,"Wildfire",41.173,-116.877
622,2591,"NV","ALLEN CRK",1985,8,19,"Wildfire",41.184,-115.345
623,92482,"NV","AMAX 1",1985,6,19,"Wildfire",41.229,-117.995
624,4940,"NV","GETCHELL",1985,5,24,"Wildfire",41.238,-117.169
625,3442,"NV","STEWART GP",1985,5,26,"Wildfire",41.291,-117.378
626,10850,"NV","HOTSPG",1985,8,17,"Wildfire",41.342,-117.375
627,1281,"NV","PORCUPINE",1985,8,17,"Wildfire",41.373,-117.748
628,8414,"NV","WASH ONIEL CREEK",1985,7,6,"Wildfire",41.431,-117.611
629,1519,"NV","21 MILE RD",1985,8,26,"Wildfire",41.508,-114.349
630,3199,"NV","FOURMILE",1985,7,7,"Wildfire",41.514,-116.5
631,19829,"NV","BLACK ROCK",1985,7,15,"Wildfire",41.518,-114.63
632,26856,"NV","DOUBLEH",1985,7,8,"Wildfire",41.521,-118.026
633,7410,"NV","CORRAL",1985,7,7,"Wildfire",41.583,-114.515
634,1453,"NV","HOWARD",1985,7,28,"Wildfire",41.709,-118.552
635,3686,"NV","KNOTT CK.",1985,6,19,"Wildfire",41.726,-118.794
636,74645,"NV","SENTINEL",1985,7,7,"Wildfire",41.751,-117.909
637,1663,"NV","QUINN",1985,5,19,"Wildfire",41.796,-117.765
638,3614,"NV","SHEEP CK",1985,7,6,"Wildfire",41.845,-116.346
639,1239,"NV","MCGEE MT",1985,6,19,"Wildfire",41.878,-118.918
640,39482,"NV","WILDER",1985,7,8,"Wildfire",41.914,-118.535
641,16979,"NV","YP DESERT",1985,7,10,"Wildfire",41.946,-116.63
642,23000,"NY","UNNAMED",1985,4,20,"Wildfire",41.195,-74.118
643,38451,"OR","ANGEL",1985,6,23,"Wildfire",42.126,-117.817
644,2727,"OR","LOUIS FLAT",1985,6,19,"Wildfire",42.267,-118.924
645,4329,"OR","ECHAVE",1985,8,18,"Wildfire",42.3,-117.943
646,11023,"OR","HART MT",1985,8,29,"Wildfire",42.437,-119.662
647,5603,"OR","ANDREWS",1985,7,28,"Wildfire",42.46,-118.642
648,2716,"OR","COUGAR",1985,7,17,"Wildfire",42.477,-117.104
649,8322,"OR","GUANO",1985,7,7,"Wildfire",42.529,-119.185
650,17055,"OR","LONE TREE",1985,7,7,"Wildfire",42.54,-117.234
651,20068,"OR","BIG ROCK",1985,6,22,"Wildfire",42.558,-119.946
652,31962,"OR","CORBIN",1985,6,23,"Wildfire",42.595,-117.487
653,9108,"OR","BUSTERMANN",1985,7,7,"Wildfire",42.714,-118.49
654,3174,"OR","CASTRO",1985,7,10,"Wildfire",42.755,-117.104
655,3949,"OR","DRIFT FNC.",1985,7,8,"Wildfire",42.762,-117.481
656,9835,"OR","CHINA GLCH",1985,7,7,"Wildfire",42.783,-117.652
657,7791,"OR","ROCK CR 2",1985,7,7,"Wildfire",42.788,-119.165
658,2117,"OR","OREJANA",1985,7,8,"Wildfire",42.793,-119.524
659,6886,"OR","TANKY",1985,7,7,"Wildfire",42.854,-117.451
660,20645,"OR","BONEY",1985,7,7,"Wildfire",42.933,-117.615
661,6860,"OR","JACKASS",1985,7,7,"Wildfire",43.074,-118.913
662,2189,"OR","COON TOWN",1985,7,8,"Wildfire",43.109,-118.657
663,50919,"OR","HARNEY LK.",1985,7,7,"Wildfire",43.203,-119.279
664,17435,"OR","ANDERSON",1985,7,8,"Wildfire",43.204,-118.373
665,4423,"OR","MAHOGANY",1985,8,27,"Wildfire",43.265,-117.17
666,11329,"OR","SEBREE",1985,8,15,"Wildfire",43.284,-119.681
667,1180,"OR","CRANECREEK",1985,7,7,"Wildfire",43.292,-118.411
668,5866,"OR","ROBINSON",1985,7,7,"Wildfire",43.297,-118.339
669,3781,"OR","LESLIE II",1985,6,19,"Wildfire",43.34,-117.347
670,4116,"OR","VENATOR",1985,7,8,"Wildfire",43.374,-118.316
671,15608,"OR","BROWN CY.",1985,7,7,"Wildfire",43.381,-119.196
672,5832,"OR","IBEX BU",1985,8,6,"Wildfire",43.766,-119.907
673,1549,"OR","ALTNOW",1985,7,7,"Wildfire",43.864,-118.359
674,4225,"OR","MOORES",1985,7,7,"Wildfire",44.217,-117.102
675,2529,"OR","85953210",1985,7,25,"Wildfire",44.714,-119.86
676,2330,"OR","DUMP 21",1985,6,15,"Wildfire",44.794,-121.206
677,2205,"OR","TWO SPR",1985,7,28,"Wildfire",45.037,-121.062
678,4157,"OR","OAKBROOK",1985,7,20,"Wildfire",45.333,-121.011
679,2470,"OR","GORDON CYN",1985,7,9,"Wildfire",45.577,-120.895
680,1182,"SC","UNNAMED",1985,3,13,"Wildfire",33.075,-79.69
681,2891,"SC","UNNAMED",1985,4,18,"Wildfire",33.189,-79.83
682,2743,"SC","UNNAMED",1985,4,3,"Wildfire",34.806,-79.755
683,18177,"SD","4TH OFJULY",1985,7,4,"Wildfire",43.087,-102.66
684,6434,"SD","CALICO",1985,4,14,"Wildfire",43.124,-102.593
685,1171,"SD","GRASS MT",1985,7,4,"Wildfire",43.175,-100.96
686,5821,"SD","WHITEBUTTE",1985,8,6,"Wildfire",43.234,-102.422
687,1398,"SD","EVERGREENS",1985,7,3,"Wildfire",43.315,-102.346
688,19212,"SD","YELLOWBEAR",1985,4,14,"Wildfire",43.333,-102.128
689,1033,"SD","THUNDER",1985,6,24,"Wildfire",43.339,-100.868
690,21062,"SD","FLINT HILLS",1985,7,12,"Wildfire",43.349,-103.658
691,8465,"SD","SEVEN SISTERS",1985,7,12,"Wildfire",43.372,-103.477
692,4059,"SD","GAME RANGE",1985,7,5,"Wildfire",43.381,-101.967
693,2443,"SD","THREEMILE",1985,3,25,"Wildfire",43.405,-102.254
694,1821,"SD","MAY",1985,7,3,"Wildfire",43.429,-102.018
695,1804,"SD","NORBECK",1985,4,11,"Wildfire",43.566,-103.47
696,2994,"SD","SAGE CREEK",1985,4,10,"Wildfire",43.889,-102.31
697,2436,"UT","NORTH YUBA",1985,8,10,"Wildfire",39.417,-111.959
698,2726,"UT","COYOTE KNO",1985,7,13,"Wildfire",39.757,-112.508
699,8687,"UT","SIMPSON SP",1985,6,19,"Wildfire",40.045,-112.827
700,1411,"UT","TORCH 2",1985,8,10,"Wildfire",40.221,-111.911
701,1165,"UT","UNNAMED",1985,7,14,"Unknown",40.229,-112.8
702,2195,"UT","TRAIL G.",1985,8,27,"Wildfire",40.24,-113.848
703,4681,"UT","TEKOI",1985,8,26,"Wildfire",40.372,-112.814
704,1412,"UT","ISLAND",1985,7,31,"Wildfire",40.462,-112.686
705,5121,"UT","WEYMAN",1985,6,21,"Wildfire",40.87,-109.839
706,1489,"UT","WALLOW H.",1985,8,26,"Wildfire",41.088,-114.02
707,2141,"UT","GROUSE CRK",1985,7,27,"Wildfire",41.453,-113.972
708,1706,"UT","MORRIS RANCH",1985,7,9,"Wildfire",41.817,-113.136
709,1333,"WA","UNNAMED",1985,7,20,"Wildfire",46.533,-120.929
710,19441,"WA","ROSA",1985,7,29,"Wildfire",46.762,-120.527
711,1843,"WA","UNNAMED",1985,8,9,"Unknown",46.859,-119.541
712,2170,"WA","UNNAMED",1985,8,25,"Unknown",46.964,-119.214
713,1107,"WA","BEAVER",1985,8,24,"Wildfire",47.541,-123.358
714,1695,"WA","KELLERFE",1985,7,4,"Wildfire",47.994,-118.706
715,2833,"WA","UNNAMED",1985,8,6,"Wildfire",48.148,-119.907
716,2890,"WA","MONSE",1985,6,23,"Wildfire",48.208,-119.675
717,3584,"WA","MINNIE",1985,8,28,"Wildfire",48.277,-120.049
718,1333,"WA","AIRPORT",1985,8,30,"Wildfire",48.457,-118.606
719,6798,"WA","HUBBARD CR",1985,7,21,"Wildfire",48.486,-120.469
720,32839,"WA","BARKER MT",1985,8,28,"Wildfire",48.716,-119.299
721,1524,"WA","GOLD HILL",1985,8,28,"Wildfire",48.82,-119.673
722,2550,"WY","BOUNDARY",1985,8,10,"Wildfire",42.148,-111.032
723,1792,"WY","HAYSTACK",1985,6,19,"Wildfire",42.349,-104.632
724,6450,"WY","GOAT MTN",1985,8,29,"Wildfire",42.763,-107.258
725,3737,"WY","LANTZ",1985,8,21,"Wildfire",44.405,-104.224
726,1381,"WY","BOUNDARY  2",1985,7,27,"Wildfire",44.445,-104.06
727,6421,"AK","KLUCHAY",1986,7,3,"Wildfire",62.459,-154.318
728,1135,"AK","MIDDLE FORK",1986,7,4,"Wildfire",62.48,-154.551
729,2657,"AK","613009",1986,6,14,"Wildfire",62.803,-141.84
730,4687,"AK","BEAR ISLAND",1986,6,27,"Wildfire",63.398,-153.336
731,11049,"AK","PORCUPINE",1986,6,15,"Wildfire",63.42,-142.751
732,3516,"AK","MHM S 28",1986,7,4,"Wildfire",63.479,-152.486
733,2239,"AK","COTTONWOOD",1986,7,4,"Wildfire",63.479,-154.618
734,2631,"AK","MHM SE 27",1986,7,4,"Wildfire",63.493,-151.643
735,1547,"AK","VON FRANK",1986,7,4,"Wildfire",63.511,-154.33
736,3804,"AK","SUSU",1986,7,4,"Wildfire",63.544,-155.672
737,1231,"AK","60 MILE",1986,6,15,"Wildfire",63.621,-143.032
738,1478,"AK","WEST FORK",1986,6,15,"Wildfire",63.661,-142.875
739,24573,"AK","MHM SE 27",1986,7,5,"Wildfire",63.664,-151.448
740,1572,"AK","MHM SE 36",1986,7,5,"Wildfire",63.673,-151.165
741,6565,"AK","MHM ESE 23",1986,7,5,"Wildfire",63.819,-151.505
742,29564,"AK","632010",1986,6,14,"Wildfire",64.029,-151.266
743,4013,"AK","RAPID CREEK",1986,6,15,"Wildfire",64.297,-145.47
744,15042,"AK","631053",1986,7,8,"Wildfire",64.326,-154.715
745,12539,"AK","BLUEBERRY",1986,6,15,"Wildfire",64.357,-145.254
746,4268,"AK","CARIBOU",1986,6,30,"Wildfire",64.72,-145.847
747,2917,"AK","GALNE 42",1986,7,7,"Wildfire",65.165,-155.219
748,1774,"AK","631016",1986,7,6,"Wildfire",65.342,-149.732
749,45333,"AK","EUREKA CK",1986,6,29,"Wildfire",65.454,-143.413
750,36938,"AK","TAL N 20",1986,7,1,"Wildfire",65.498,-151.8
751,1088,"AK","TAL NE 30",1986,7,8,"Wildfire",65.531,-151.5
752,6374,"AK","GAL NE 87",1986,7,6,"Wildfire",65.847,-154.869
753,16900,"AK","DCK SW 47",1986,5,31,"Wildfire",66.237,-156.341
754,2722,"AK","SMT S 25",1986,6,4,"Wildfire",66.359,-141.8
755,11996,"AK","CIK E 30",1986,7,1,"Wildfire",66.595,-142.932
756,7790,"AK","CIK E 24",1986,7,6,"Wildfire",66.794,-142.408
757,3941,"AK","A309",1986,7,8,"Wildfire",66.797,-155.335
758,17173,"AK","FYU N 37",1986,7,4,"Wildfire",67.216,-145.104
759,13416,"AK","CIK N 40",1986,7,1,"Wildfire",67.246,-142.859
760,1325,"AZ","SHANNON",1986,5,2,"Wildfire",31.435,-110.771
761,10734,"AZ","SASABE",1986,6,17,"Wildfire",31.532,-111.512
762,1377,"AZ","SASABE",1986,5,15,"Wildfire",31.541,-111.406
763,1432,"AZ","UNNAMED",1986,6,27,"Wildfire",31.801,-111.432
764,1575,"AZ","UNNAMED",1986,5,2,"Wildfire",31.898,-110.735
765,6095,"AZ","BISCUIT",1986,6,17,"Wildfire",32.714,-110.441
766,3015,"AZ","HOT AIR/ROBISON",1986,5,4,"Wildfire",33.463,-109.41
767,16396,"AZ","POCUM",1986,6,3,"Wildfire",36.568,-113.824
768,1031,"CA","MINE",1986,9,4,"Wildfire",32.581,-116.768
769,1824,"CA","CAPTAIN",1986,7,13,"Wildfire",32.948,-116.747
770,1108,"CA","UNNAMED",1986,6,13,"Unknown",33.051,-116.725
771,16390,"CA","UNNAMED",1986,5,12,"Wildfire",33.423,-117.483
772,2541,"CA","UNNAMED",1986,7,31,"Unknown",33.443,-117.428
773,1242,"CA","BEDFORD 1",1986,6,4,"Prescribed Fire",33.785,-117.524
774,1720,"CA","WILMOT",1986,5,29,"Wildfire",33.899,-117.146
775,1403,"CA","COLORADO 2",1986,4,13,"Wildfire",33.986,-114.489
776,4085,"CA","TECALOTE",1986,7,20,"Wildfire",34.26,-117.89
777,10100,"CA","BRADLEY",1986,11,10,"Wildfire",34.312,-119.058
778,4188,"CA","SALT/TAPO BURN",1986,10,30,"Prescribed Fire",34.377,-118.69
779,2864,"CA","VALENCIA BURN",1986,8,27,"Prescribed Fire",34.396,-118.595
780,1465,"CA","UNNAMED",1986,3,27,"Unknown",34.556,-118.303
781,1019,"CA","LEONA",1986,7,3,"Wildfire",34.629,-118.302
782,4396,"CA","UNNAMED",1986,9,15,"Wildfire",34.634,-119.892
783,1227,"CA","POPPY FIRE",1986,8,17,"Wildfire",34.745,-118.371
784,1262,"CA","SUEY RANCH WEST",1986,10,25,"Wildfire",35.034,-120.248
785,1353,"CA","UNNAMED",1986,8,30,"Wildfire",35.04,-120.317
786,4710,"CA","NSCRIPTION",1986,5,30,"Wildfire",35.183,-117.143
787,1895,"CA","RANCHITA",1986,8,26,"Wildfire",35.185,-120.416
788,1655,"CA","DERBY ACRE",1986,7,17,"Wildfire",35.24,-119.545
789,1513,"CA","UNNAMED",1986,5,19,"Unknown",35.38,-118.811
790,2682,"CA","BOTTCHER",1986,11,6,"Wildfire",36.352,-121.795
791,4615,"CA","RIVER",1986,11,6,"Wildfire",36.378,-121.425
792,1225,"CA","SALT CREEK VMP",1986,10,6,"Prescribed Fire",36.434,-118.833
793,2119,"CA","BRYANT CANYON",1986,5,24,"Wildfire",36.445,-121.277
794,1556,"CA","PANOCHE 2",1986,6,2,"Wildfire",36.659,-120.863
795,1071,"CA","UNNAMED",1986,7,29,"Wildfire",36.804,-119.283
796,10963,"CA","DEER",1986,9,9,"Wildfire",36.871,-118.936
797,1165,"CA","SYCAMORE",1986,7,21,"Wildfire",36.921,-119.256
798,2811,"CA","UNNAMED",1986,6,9,"Wildfire",37.656,-121.529
799,2068,"CA","CASCADE CR",1986,7,27,"Wildfire",37.757,-119.715
800,1583,"CA","BEAR MTN. 6",1986,10,22,"Prescribed Fire",38.061,-120.69
801,3598,"CA","FREDRICKSBURG",1986,7,16,"Wildfire",38.83,-119.808
802,1639,"CA","WENDEL",1986,7,18,"Wildfire",40.377,-120.211
803,1853,"CA","MOSEMAN RANCH",1986,8,1,"Prescribed Fire",40.572,-122.084
804,5397,"CO","WESTTOE",1986,6,21,"Wildfire",37.138,-109.011
805,5298,"CO","HOGAN",1986,6,21,"Wildfire",37.222,-108.957
806,6205,"CO","UNNAMED",1986,8,5,"Wildfire",38.025,-108.708
807,25771,"CO","UNNAMED",1986,3,26,"Wildfire",38.449,-104.329
808,1192,"CO","LONG",1986,8,9,"Wildland Fire Use",40.498,-108.703
809,2536,"CO","BIG JOE",1986,8,16,"Wildfire",40.829,-108.819
810,1061,"FL","NINE MILE",1986,7,11,"Prescribed Fire",25.251,-80.775
811,3447,"FL","PINES WA",1986,7,14,"Prescribed Fire",25.388,-80.785
812,5417,"FL","UNNAMED",1986,4,11,"Wildfire",25.394,-80.407
813,1084,"FL","BLOCK A",1986,8,2,"Prescribed Fire",25.407,-80.714
814,993,"FL","BLOCK D",1986,8,3,"Prescribed Fire",25.427,-80.672
815,815,"FL","DOF 48",1986,5,22,"Wildfire",25.485,-80.586
816,812,"FL","DDF 07",1986,9,3,"Wildfire",25.519,-80.588
817,1196,"FL","UNNAMED",1986,10,20,"Wildfire",25.6,-80.555
818,1873,"FL","PINECREST1",1986,2,16,"Prescribed Fire",25.724,-80.952
819,3723,"FL","UNNAMED",1986,4,11,"Unknown",25.799,-80.991
820,1473,"FL","TURNRIVER",1986,3,29,"Wildfire",25.931,-81.276
821,2750,"FL","BASSLK TRR",1986,1,7,"Prescribed Fire",25.952,-81.28
822,1486,"FL","BIRDON NW",1986,2,1,"Prescribed Fire",25.981,-81.321
823,1178,"FL","UNNAMED",1986,4,11,"Unknown",25.985,-80.327
824,510,"FL","WAIRPLANE",1986,3,4,"Prescribed Fire",25.996,-81.289
825,569,"FL","UNNAMED",1986,4,18,"Wildfire",26.016,-81.468
826,4347,"FL","UNNAMED",1986,4,2,"Wildfire",26.083,-81.51
827,3192,"FL","UNNAMED",1986,4,2,"Wildfire",26.13,-81.571
828,1222,"FL","UNNAMED",1986,1,28,"Unknown",26.158,-81.462
829,1445,"FL","UNNAMED",1986,2,22,"Wildfire",26.16,-80.876
830,2851,"FL","BROWN",1986,2,8,"Prescribed Fire",26.236,-81.202
831,503,"FL","UNNAMED",1986,2,22,"Unknown",26.618,-80.974
832,1295,"FL","UNNAMED",1986,4,18,"Wildfire",26.75,-82.022
833,605,"FL","UNNAMED",1986,1,28,"Unknown",26.809,-81.979
834,16145,"FL","UNNAMED",1986,1,28,"Unknown",26.883,-81.755
835,854,"FL","UNNAMED",1986,1,28,"Unknown",26.906,-81.898
836,522,"FL","UNNAMED",1986,1,28,"Unknown",26.95,-82.275
837,2567,"FL","UNNAMED",1986,1,28,"Unknown",26.97,-81.376
838,502,"FL","UNNAMED",1986,2,22,"Unknown",27.32,-80.672
839,694,"FL","UNNAMED",1986,2,22,"Unknown",27.385,-80.703
840,1600,"FL","UNNAMED",1986,2,14,"Wildfire",27.531,-80.814
841,896,"FL","UNNAMED",1986,1,28,"Unknown",27.532,-81.044
842,533,"FL","UNNAMED",1986,4,2,"Wildfire",27.55,-81.552
843,1539,"FL","UNNAMED",1986,1,28,"Unknown",27.553,-82.196
844,1241,"FL","UNNAMED",1986,1,28,"Wildfire",27.557,-81.597
845,2916,"FL","UNNAMED",1986,1,28,"Unknown",27.561,-81.27
846,596,"FL","UNNAMED",1986,1,28,"Unknown",27.601,-81.084
847,3519,"FL","UNNAMED",1986,1,12,"Unknown",27.624,-81.169
848,2274,"FL","UNNAMED",1986,1,28,"Unknown",27.631,-82.044
849,1844,"FL","UNNAMED",1986,1,28,"Unknown",27.661,-81.301
850,709,"FL","UNNAMED",1986,1,28,"Unknown",27.664,-80.863
851,2514,"FL","UNNAMED",1986,1,28,"Unknown",27.677,-81.225
852,900,"FL","UNNAMED",1986,1,28,"Unknown",27.708,-81.357
853,1792,"FL","UNNAMED",1986,1,28,"Unknown",27.718,-81.241
854,824,"FL","UNNAMED",1986,1,12,"Unknown",27.723,-81.383
855,661,"FL","UNNAMED",1986,1,28,"Unknown",27.728,-80.834
856,524,"FL","UNNAMED",1986,1,28,"Unknown",27.733,-81.219
857,642,"FL","UNNAMED",1986,1,28,"Unknown",27.772,-81.216
858,683,"FL","UNNAMED",1986,2,22,"Unknown",27.782,-80.543
859,1189,"FL","UNNAMED",1986,1,28,"Unknown",27.787,-81.281
860,1410,"FL","UNNAMED",1986,2,22,"Unknown",27.819,-80.534
861,1222,"FL","UNNAMED",1986,1,12,"Unknown",27.829,-81.301
862,554,"FL","UNNAMED",1986,2,22,"Unknown",27.852,-80.534
863,1411,"FL","UNNAMED",1986,1,28,"Unknown",27.852,-81.335
864,2028,"FL","UNNAMED",1986,11,12,"Wildfire",27.894,-81.195
865,1867,"FL","UNNAMED",1986,1,28,"Unknown",27.912,-81.014
866,666,"FL","UNNAMED",1986,1,12,"Unknown",27.924,-80.868
867,516,"FL","UNNAMED",1986,1,28,"Unknown",27.926,-81.056
868,1225,"FL","UNNAMED",1986,1,28,"Unknown",27.986,-81.019
869,1914,"FL","UNNAMED",1986,1,12,"Unknown",27.989,-81.33
870,772,"FL","UNNAMED",1986,1,12,"Unknown",28.01,-80.883
871,763,"FL","UNNAMED",1986,1,12,"Unknown",28.061,-81.109
872,669,"FL","UNNAMED",1986,1,28,"Unknown",28.1,-81.424
873,5442,"FL","UNNAMED",1986,1,28,"Unknown",28.123,-81.022
874,1016,"FL","UNNAMED",1986,1,12,"Unknown",28.123,-81.308
875,991,"FL","UNNAMED",1986,9,14,"Unknown",29.771,-85.227
876,868,"FL","UNNAMED",1986,4,23,"Unknown",29.833,-84.957
877,1139,"FL","UNNAMED",1986,9,14,"Unknown",29.883,-85.286
878,1190,"FL","UNNAMED",1986,4,7,"Unknown",29.886,-85.27
879,1230,"FL","UNNAMED",1986,7,14,"Wildfire",29.9,-83.12
880,997,"FL","UNNAMED",1986,10,16,"Unknown",29.919,-84.958
881,2382,"FL","UNNAMED",1986,4,7,"Unknown",29.929,-85.249
882,974,"FL","UNNAMED",1986,7,28,"Unknown",29.933,-85.223
883,802,"FL","UNNAMED",1986,9,14,"Unknown",29.939,-85.326
884,833,"FL","UNNAMED",1986,4,7,"Unknown",29.979,-85.406
885,1068,"FL","UNNAMED",1986,10,16,"Unknown",29.98,-84.854
886,1711,"FL","UNNAMED",1986,9,14,"Wildfire",29.99,-85.297
887,1543,"FL","UNNAMED",1986,10,16,"Unknown",30.01,-84.92
888,1065,"FL","UNNAMED",1986,3,22,"Unknown",30.287,-85.904
889,3586,"FL","UNNAMED",1986,9,14,"Unknown",30.351,-85.271
890,1155,"FL","UNNAMED",1986,9,14,"Unknown",30.478,-85.919
891,772,"GA","HONEY IS",1986,6,7,"Wildfire",30.775,-82.325
892,772,"GA","UNNAMED",1986,7,14,"Unknown",30.775,-82.325
893,2416,"GA","UNNAMED",1986,6,28,"Unknown",30.879,-82.786
894,11824,"ID","JUNIPER",1986,8,3,"Wildfire",42.05,-116.421
895,1205,"ID","RED ROCK",1986,8,8,"Wildfire",42.215,-113.41
896,3965,"ID","MACKEY",1986,6,25,"Wildfire",42.276,-113.97
897,3660,"ID","RIDDLE",1986,8,11,"Wildfire",42.278,-116.232
898,3541,"ID","PORCUPINE",1986,8,18,"Wildfire",42.319,-116.703
899,4584,"ID","BIG HILL",1986,8,2,"Wildfire",42.405,-115.776
900,12605,"ID","SHEEP HEAD",1986,6,24,"Wildfire",42.413,-115.568
901,8836,"ID","WICKAHONEY",1986,8,10,"Wildfire",42.437,-115.973
902,1628,"ID","BLACKSTONE",1986,7,28,"Wildfire",42.463,-115.792
903,62445,"ID","BLUE BUTTE",1986,8,10,"Wildfire",42.668,-115.294
904,5565,"ID","NORLAND N8",1986,7,29,"Wildfire",42.914,-113.626
905,7637,"ID","BRIGHAM POINT",1986,7,29,"Wildfire",42.928,-113.553
906,2339,"ID","ALKALI CR",1986,7,4,"Wildfire",42.969,-115.355
907,15820,"ID","DORSEY BT",1986,8,7,"Wildfire",43.067,-116.002
908,1252,"ID","DIVISION",1986,7,18,"Wildfire",43.082,-115.752
909,2734,"ID","HOGFARM",1986,6,28,"Wildfire",43.106,-115.729
910,1486,"ID","LOCKMAN",1986,6,27,"Wildfire",43.206,-115.777
911,1061,"ID","DITTO HILL",1986,9,6,"Wildfire",43.314,-114.304
912,10111,"ID","LONG TOM",1986,8,7,"Wildfire",43.347,-115.561
913,13657,"ID","WILLOW CREEK COMPLEX",1986,8,7,"Wildfire",43.402,-115.691
914,5591,"ID","BRYANS RUN",1986,7,20,"Wildfire",43.415,-116.055
915,2286,"ID","ST. MARYS",1986,9,13,"Wildfire",43.424,-112.471
916,3011,"ID","PLEASANT",1986,8,28,"Wildfire",43.485,-116.188
917,23530,"ID","SHADOW VAL",1986,8,10,"Wildfire",43.747,-116.287
918,1717,"ID","JENESS",1986,6,24,"Wildfire",43.845,-116.661
919,40847,"ID","BISSELL CK",1986,8,10,"Wildfire",43.996,-116.62
920,39901,"ID","VAN DUSEN",1986,8,10,"Wildfire",44.036,-116.443
921,2792,"ID","UNNAMED",1986,7,13,"Wildfire",44.042,-116.781
922,5287,"ID","STONE QRY",1986,8,6,"Wildfire",44.063,-116.728
923,10087,"ID","INDIAN CK",1986,8,7,"Wildfire",44.077,-116.633
924,6488,"ID","CEDAR BT 2",1986,7,22,"Wildfire",44.113,-112.312
925,24051,"ID","RINGER",1986,8,7,"Wildfire",44.129,-116.829
926,3288,"ID","WET GULCH",1986,8,6,"Wildfire",44.132,-116.664
927,19694,"ID","WEST ANDERSON",1986,8,10,"Wildfire",44.138,-115.873
928,22749,"ID","GEORGEWAY",1986,8,2,"Wildfire",44.162,-116.463
929,11235,"ID","ROCK QRYII",1986,8,7,"Wildfire",44.17,-116.57
930,4483,"ID","SKIDROAD",1986,8,11,"Wildfire",44.18,-115.955
931,3742,"ID","PADDOCK",1986,8,7,"Wildfire",44.221,-116.556
932,9443,"ID","HOG CK",1986,8,2,"Wildfire",44.269,-116.361
933,5591,"ID","SOULEN",1986,8,11,"Wildfire",44.284,-116.605
934,1300,"ID","WAYLE",1986,8,10,"Wildfire",44.649,-117.08
935,11232,"ID","GOODRICH",1986,8,10,"Wildfire",44.674,-116.618
936,10985,"ID","HAND MEADOWS",1986,8,11,"Wildfire",45.297,-115.226
937,10974,"ID","LITTLE GRANITE",1986,8,11,"Wildfire",45.357,-116.615
938,1000,"ID","GUS CREEK",1986,8,4,"Wildfire",45.419,-116.193
939,1242,"ID","MULE CRK POINT",1986,8,11,"Wildfire",45.425,-115.016
940,7748,"ID","DEVILS TEETH",1986,8,12,"Wildfire",45.438,-114.942
941,4173,"ID","ROCK CREEK",1986,8,10,"Wildfire",45.891,-116.705
942,7386,"ID","ROUND SPRINGS",1986,8,10,"Wildfire",45.949,-116.509
943,2072,"ID","MINK CREEK",1986,8,10,"Wildfire",46.08,-115.072
944,1238,"ID","UNNAMED",1986,8,11,"Wildfire",46.086,-115.038
945,2847,"ID","BEAR WALLOW",1986,8,10,"Wildfire",46.107,-115.075
946,863,"IN","OGDEN DUNS",1986,3,25,"Wildfire",41.608,-87.218
947,8347,"KS","UNNAMED",1986,3,28,"Unknown",38.72,-97.822
948,2491,"MI","MARQUETTE13",1986,5,6,"Wildfire",46.222,-87.415
949,3983,"MI","MARQUETTE11",1986,5,6,"Wildfire",46.305,-87.353
950,671,"MI","MARQUETTE10",1986,5,6,"Wildfire",46.4,-87.784
951,521,"MI","MARQUETTE9",1986,5,6,"Wildfire",46.459,-87.938
952,1096,"MN","UNNAMED",1986,5,29,"Wildfire",48.743,-94.746
953,1759,"MN","UNNAMED",1986,8,28,"Wildfire",48.869,-95.443
954,661,"MO","UNNAMED",1986,3,30,"Wildfire",36.745,-91.052
955,508,"MO","UNNAMED",1986,3,25,"Wildfire",36.95,-91.431
956,1147,"MO","UNNAMED",1986,4,10,"Unknown",37.051,-90.873
957,1197,"MT","COW CREEK",1986,8,10,"Wildfire",46.027,-106.217
958,760,"NC","UNNAMED",1986,5,2,"Wildfire",34.224,-78.095
959,2024,"NC","UNNAMED",1986,4,20,"Wildfire",34.301,-77.814
960,705,"NC","UNNAMED",1986,2,17,"Wildfire",34.341,-78.308
961,77768,"NC","UNNAMED",1986,5,5,"Wildfire",34.49,-77.696
962,2642,"NC","UNNAMED",1986,4,29,"Wildfire",34.811,-78.511
963,4031,"NC","UNNAMED",1986,4,5,"Wildfire",34.918,-76.4
964,825,"NC","PEACHTREE",1986,4,1,"Wildfire",35.461,-83.487
965,1281,"NJ","UNNAMED",1986,3,1,"Prescribed Fire",39.687,-74.56
966,557,"NJ","UNNAMED",1986,4,15,"Prescribed Fire",39.758,-74.753
967,582,"NJ","SPUR WARREN GROVE RD.",1986,4,25,"Wildfire",39.764,-74.356
968,550,"NJ","UNNAMED",1986,3,25,"Prescribed Fire",39.777,-74.643
969,584,"NJ","UNNAMED",1986,3,20,"Prescribed Fire",39.888,-74.405
970,906,"NJ","LAKEHURST NAVAL AIR",1986,5,5,"Wildfire",40.027,-74.371
971,1579,"NM","GRANITE",1986,4,17,"Wildfire",33.173,-108.336
972,3061,"NM","UNNAMED",1986,1,26,"Unknown",33.511,-108.489
973,17410,"NV","USAF 2",1986,6,28,"Wildfire",37.481,-115.939
974,3213,"NV","CHURCHL BT",1986,8,9,"Wildfire",39.328,-119.333
975,7777,"NV","GRASS VAL",1986,7,3,"Wildfire",39.63,-116.659
976,3740,"NV","COLD CREEK",1986,8,5,"Wildfire",39.647,-115.791
977,2401,"NV","PARIS RNCH",1986,8,16,"Wildfire",40.173,-114.947
978,2322,"NV","SWEENEY",1986,9,5,"Wildfire",40.449,-117.748
979,4537,"NV","SPAULDING",1986,6,24,"Wildfire",40.546,-117.664
980,2128,"NV","GRINDSTONE",1986,8,7,"Wildfire",40.588,-115.983
981,4306,"NV","WHIRLWIND",1986,6,19,"Wildfire",40.623,-116.571
982,2438,"NV","BARBER CYN",1986,8,10,"Wildfire",40.664,-117.932
983,2086,"NV","RESEVOIR",1986,7,2,"Wildfire",40.775,-115.697
984,1427,"NV","SPRR 1",1986,7,3,"Wildfire",40.787,-117.102
985,4359,"NV","BUTTON PT2",1986,6,24,"Wildfire",40.975,-117.561
986,14968,"NV","PREBLE",1986,8,10,"Wildfire",41.033,-117.386
987,2391,"NV","SLUMB 1",1986,6,12,"Wildfire",41.174,-117.83
988,2992,"NV","SLEEPER",1986,6,28,"Wildfire",41.274,-118.029
989,16603,"NV","NATIONAL",1986,6,24,"Wildfire",41.856,-117.629
990,3806,"NV","8 MILE 2",1986,8,10,"Wildfire",41.885,-117.561
991,3427,"OK","UNNAMED",1986,3,23,"Unknown",36.91,-94.656
992,13042,"OR","ABERT",1986,8,1,"Wildfire",42.595,-120.293
993,3533,"OR","JACKIES BT",1986,9,7,"Wildfire",42.608,-117.576
994,1863,"OR","LAVOY",1986,8,10,"Wildfire",42.783,-119.063
995,4488,"OR","ROUND MTN",1986,8,10,"Wildfire",42.822,-117.539
996,10147,"OR","UNNAMED",1986,10,6,"Unknown",42.893,-121.689
997,34432,"OR","BACON CAMP",1986,8,1,"Wildfire",42.968,-119.812
998,11837,"OR","JORDAN",1986,8,11,"Wildfire",42.993,-117.234
999,65309,"OR","BOGUS CR",1986,8,10,"Wildfire",43.005,-117.538
1000,4517,"OR","SADDLE BU",1986,9,7,"Wildfire",43.132,-118.973
1001,3624,"OR","HOLE",1986,8,11,"Wildfire",43.187,-117.593
1002,21788,"OR","LESLIE GLH",1986,8,11,"Wildfire",43.336,-117.175
1003,2120,"OR","DICKERSON",1986,8,1,"Wildfire",43.336,-120.631
1004,18787,"OR","MCEWEN",1986,8,10,"Wildfire",43.347,-118.1
1005,7611,"OR","UGLY",1986,8,16,"Wildfire",43.442,-120.911
1006,16704,"OR","3 FINGERS",1986,8,11,"Wildfire",43.454,-117.178
1007,1445,"OR","VERGAS RANCH",1986,8,21,"Wildfire",43.737,-119.85
1008,1363,"OR","MUD SPRING",1986,8,10,"Wildfire",43.821,-117.246
1009,9751,"OR","CAINE",1986,8,7,"Wildfire",43.825,-117.416
1010,1334,"OR","LWR BEULAH",1986,8,10,"Wildfire",43.917,-118.07
1011,27008,"OR","TUB MTN",1986,8,7,"Wildfire",44.086,-117.178
1012,1060,"OR","FAREWELL",1986,8,9,"Wildfire",44.241,-117.164
1013,1978,"OR","EDWARD",1986,8,2,"Wildfire",44.294,-117.506
1014,1017,"OR","UNNAMED",1986,8,2,"Wildfire",44.38,-118.496
1015,2073,"OR","CORONET",1986,8,2,"Wildfire",44.519,-117.838
1016,2772,"OR","DARK CANYON",1986,8,2,"Wildfire",44.543,-117.749
1017,8506,"OR","SUNFLOWER",1986,8,2,"Wildfire",44.577,-118.069
1018,8051,"OR","HUCKLEBERRY",1986,8,2,"Wildfire",44.65,-118.151
1019,2790,"OR","DRY CREEK",1986,8,3,"Wildfire",44.657,-117.688
1020,3111,"OR","86953423",1986,8,2,"Wildfire",44.769,-119.501
1021,2805,"OR","LOST LAKE",1986,8,11,"Wildfire",44.792,-118.634
1022,1446,"OR","JUMPOFF",1986,8,10,"Wildfire",44.808,-118.724
1023,5352,"OR","CRANE CREEK",1986,8,11,"Wildfire",44.91,-118.463
1024,6274,"OR","CLEAR",1986,8,3,"Wildfire",44.959,-118.3
1025,1628,"OR","GROUSE CREEK",1986,8,10,"Wildfire",45.336,-116.825
1026,1626,"OR","SHEEP DIVIDE",1986,8,12,"Wildfire",45.531,-116.833
1027,13885,"OR","PUMPKIN CREEK",1986,8,12,"Wildfire",45.587,-116.757
1028,1053,"OR","ROBERTS BUTTE",1986,8,11,"Wildfire",45.654,-117.173
1029,1633,"OR","CORRAL CREEK",1986,8,10,"Wildfire",45.696,-116.838
1030,2881,"OR","MIDDLE POINT",1986,8,11,"Wildfire",45.79,-117.482
1031,37064,"OR","JOSEPH/STARVATION",1986,8,11,"Wildfire",45.833,-117.209
1032,1719,"OR","KUHN",1986,8,11,"Wildfire",45.841,-117.433
1033,530,"TN","HICKORY",1986,4,3,"Wildfire",35.608,-83.724
1034,1518,"TX","PAN AM",1986,7,4,"Wildfire",27.28,-97.356
1035,4733,"TX","FIREWORKS",1986,7,5,"Wildfire",27.37,-97.337
1036,1658,"TX","ROCKET",1986,7,9,"Wildfire",27.511,-97.276
1037,8876,"TX","STAR LAKE",1986,9,3,"Wildfire",29.673,-94.19
1038,2852,"TX","PRESCRIBED",1986,3,24,"Wildfire",30.629,-94.688
1039,8532,"UT","OAK GROVE",1986,6,19,"Wildfire",37.321,-113.408
1040,1657,"UT","BURNT SPOT",1986,7,26,"Wildfire",38.102,-112.93
1041,1864,"UT","CACTUSPOND",1986,7,2,"Wildfire",38.258,-113.014
1042,34633,"UT","TWINPEAKS",1986,7,4,"Wildfire",38.846,-112.639
1043,5072,"UT","TABERNACLE",1986,6,4,"Wildfire",38.914,-112.535
1044,1534,"UT","WEST",1986,6,19,"Wildfire",38.97,-109.769
1045,1607,"UT","SNYDER 3",1986,7,13,"Wildfire",39.043,-109.086
1046,2489,"UT","BITTERCRK",1986,7,14,"Wildfire",39.231,-109.097
1047,7272,"UT","CLAY SPRINGS",1986,9,7,"Wildfire",39.354,-112.363
1048,7698,"UT","WIDE CANYON",1986,9,8,"Wildfire",39.481,-112.157
1049,7272,"UT","FOOL CREEK",1986,9,7,"Wildfire",39.485,-112.278
1050,1439,"UT","MILLARD",1986,6,13,"Wildfire",39.501,-112.292
1051,5588,"UT","SAND MTN",1986,6,25,"Wildfire",39.607,-112.363
1052,4273,"UT","ROCKWELLII",1986,8,8,"Wildfire",39.688,-112.45
1053,7522,"UT","WIDECANYON",1986,7,3,"Wildfire",39.69,-112.162
1054,12185,"UT","HOSE LAY",1986,8,10,"Wildfire",39.762,-112.343
1055,1362,"UT","DESERT MTN",1986,6,12,"Wildfire",39.787,-112.521
1056,2765,"UT","KEG MTN",1986,8,8,"Wildfire",39.825,-112.783
1057,9687,"UT","CHAOS",1986,8,8,"Wildfire",39.895,-112.581
1058,3195,"UT","ELPORTA FARMS",1986,6,27,"Wildfire",40.061,-111.983
1059,5848,"UT","DAVIS KNOL",1986,8,16,"Wildfire",40.179,-112.579
1060,2670,"UT","CIRCUS",1986,7,10,"Wildfire",40.342,-112.391
1061,1675,"UT","DUST",1986,7,4,"Wildfire",40.471,-113.034
1062,2459,"UT","SALT MTN",1986,6,27,"Wildfire",40.555,-112.733
1063,3553,"UT","CRISTINE",1986,8,8,"Wildfire",40.878,-112.779
1064,1309,"UT","PICK UP",1986,8,16,"Wildfire",41.614,-111.316
1065,627,"VA","POORVALLEY",1986,3,25,"Wildfire",36.66,-83.458
1066,1976,"VA","TUCKER",1986,4,1,"Wildfire",37.639,-80.006
1067,4161,"VA","BIG RUN",1986,5,2,"Wildfire",38.291,-78.689
1068,1897,"WA","TRAIN",1986,6,5,"Wildfire",45.926,-119.502
1069,14398,"WA","JOSEPH CANYON 1",1986,8,11,"Wildfire",46.01,-117.116
1070,3714,"WA","CAMERON CK",1986,8,21,"Wildfire",48.32,-119.538
1071,3476,"WA","EUREKA",1986,8,2,"Wildfire",48.704,-120.509
1072,4078,"WY","COLLINS PEAK",1986,7,27,"Wildfire",42.046,-105.307
1073,4174,"AK","LANDMARK",1987,6,10,"Wildfire",61.951,-159.298
1074,40844,"AK","GRANITE CREEK",1987,5,22,"Wildfire",63.864,-145.541
1075,2429,"AK","SLATE CREK",1987,6,30,"Wildfire",63.934,-149.189
1076,2967,"AK","FBK E 155",1987,6,23,"Wildfire",64.315,-141.93
1077,9635,"AK","EIELSON",1987,6,23,"Wildfire",64.774,-146.911
1078,1399,"AK","732061",1987,6,18,"Wildfire",65.968,-144.223
1079,16807,"AK","FYU S 39",1987,7,13,"Wildfire",66.033,-144.901
1080,1808,"AK","BTT SW 81",1987,7,13,"Wildfire",66.46,-154.701
1081,1444,"AK","DCK S 35",1987,6,8,"Wildfire",66.475,-157.612
1082,7461,"AK","731015",1987,7,6,"Wildfire",67.802,-163.664
1083,9037,"AK","FYU NE 96",1987,7,11,"Wildfire",67.836,-142.403
1084,1350,"AL","UNNAMED",1987,11,7,"Wildfire",32.732,-87.149
1085,1006,"AL","UNNAMED",1987,11,7,"Wildfire",32.771,-87.005
1086,2669,"AL","STATEC0045",1987,11,6,"Wildfire",34.472,-85.534
1087,657,"AR","UNNAMED",1987,11,5,"Wildfire",34.925,-94.4
1088,2250,"AR","WILDERNESS",1987,3,14,"Wildfire",36.164,-92.479
1089,554,"AR","UNNAMED",1987,4,20,"Unknown",36.177,-92.521
1090,2315,"AZ","SOUTH",1987,6,27,"Wildfire",31.543,-109.095
1091,3122,"AZ","SMITHSOUTH",1987,6,27,"Wildfire",31.554,-109.409
1092,2423,"AZ","LAMPSHIRE",1987,6,9,"Wildfire",31.564,-110.642
1093,1220,"AZ","UNNAMED",1987,4,10,"Unknown",31.607,-109.244
1094,4469,"AZ","UNNAMED",1987,3,28,"Wildfire",31.661,-110.568
1095,5298,"AZ","UNNAMED",1987,6,29,"Unknown",31.771,-110.405
1096,1931,"AZ","UNNAMED",1987,6,14,"Wildfire",31.867,-111.231
1097,1132,"AZ","UNNAMED",1987,6,29,"Unknown",32.026,-109.522
1098,1084,"AZ","SMITH",1987,6,24,"Wildfire",32.224,-110.44
1099,3835,"AZ","SEVEN FALLS",1987,9,8,"Wildfire",32.326,-110.74
1100,1200,"AZ","RESEARCH WELL",1987,6,14,"Wildfire",32.372,-110.934
1101,1737,"AZ","UNNAMED",1987,6,20,"Unknown",32.619,-110.446
1102,1831,"AZ","UNNAMED",1987,6,14,"Wildfire",32.733,-110.955
1103,5946,"AZ","GUTHRIE",1987,6,15,"Wildfire",32.882,-109.302
1104,2122,"AZ","BONITA II",1987,6,15,"Wildfire",33.101,-109.6
1105,1076,"AZ","WARM",1987,6,25,"Wildfire",33.366,-110.181
1106,1468,"AZ","BLACK",1987,6,14,"Wildfire",33.447,-111.354
1107,5514,"AZ","TILLA 2",1987,8,30,"Wildfire",33.504,-111.313
1108,2958,"AZ","UNNAMED",1987,9,3,"Wildfire",33.632,-109.233
1109,2969,"AZ","UNNAMED",1987,6,15,"Wildfire",33.722,-109.092
1110,1296,"AZ","UNNAMED",1987,6,29,"Unknown",33.753,-109.813
1111,2123,"AZ","UNNAMED",1987,8,14,"Unknown",34.07,-111.872
1112,1274,"AZ","HUTCH",1987,7,18,"Wildfire",34.198,-111.954
1113,3524,"AZ","SLIM",1987,7,4,"Wildfire",34.447,-110.836
1114,1453,"AZ","UNNAMED",1987,8,14,"Unknown",34.67,-112.732
1115,1392,"AZ","THREE MILE",1987,8,30,"Wildfire",34.816,-114.554
1116,2018,"AZ","GHOST",1987,8,2,"Wildfire",35.69,-114.345
1117,1793,"AZ","WILLIS",1987,7,13,"Wildfire",36.794,-112.219
1118,2049,"CA","ASSIST 79",1987,6,18,"Wildfire",32.89,-117.01
1119,1692,"CA","FERGUSONLK",1987,5,7,"Wildfire",32.999,-114.505
1120,2210,"CA","GRADE",1987,10,4,"Wildfire",33.181,-117.042
1121,10256,"CA","PALOMAR",1987,10,3,"Wildfire",33.345,-116.929
1122,3238,"CA","ANTELOPE",1987,10,3,"Wildfire",33.609,-117.221
1123,6389,"CA","SILVERADO",1987,9,9,"Wildfire",33.748,-117.524
1124,1384,"CA","VERBENIA",1987,6,14,"Wildfire",33.894,-116.71
1125,1084,"CA","TRUCK",1987,5,31,"Wildfire",34.271,-117.443
1126,1242,"CA","PEPPERTREE CONTROLLE",1987,11,11,"Wildfire",34.319,-119.173
1127,1527,"CA","JEEP",1987,8,23,"Wildfire",34.326,-117.177
1128,10001,"CA","RUBY",1987,9,20,"Wildfire",34.594,-118.555
1129,4052,"CA","FISH",1987,10,2,"Wildfire",34.664,-119.152
1130,1894,"CA","SYCAMORE CANYON",1987,4,1,"Prescribed Fire",34.881,-118.719
1131,3546,"CA","SLU-0864",1987,5,5,"Wildfire",35.041,-120.347
1132,2437,"CA","UNNAMED",1987,5,5,"Wildfire",35.107,-118.752
1133,1481,"CA","BAR-4-L BOYSEN RI",1987,8,25,"Prescribed Fire",35.122,-120.437
1134,3285,"CA","UNNAMED",1987,9,11,"Wildfire",35.128,-118.68
1135,1219,"CA","UNNAMED",1987,9,11,"Wildfire",35.167,-118.731
1136,1056,"CA","PILITAS",1987,8,4,"Wildfire",35.365,-120.517
1137,10177,"CA","FAY",1987,8,30,"Wildfire",35.765,-118.286
1138,2172,"CA","UNNAMED",1987,7,7,"Wildfire",36,-121.027
1139,1584,"CA","NUNEZ",1987,5,19,"Wildfire",36.233,-120.445
1140,2170,"CA","STATECA 17",1987,5,14,"Wildfire",36.3,-120.29
1141,4960,"CA","CASE",1987,8,29,"Wildfire",36.41,-118.794
1142,4351,"CA","RED MOUNTAIN",1987,8,31,"Wildfire",36.846,-119.391
1143,2273,"CA","UNNAMED",1987,8,1,"Wildfire",36.899,-119.32
1144,1318,"CA","UNNAMED",1987,8,1,"Wildfire",36.942,-119.219
1145,1445,"CA","UNNAMED",1987,6,22,"Wildfire",37.217,-119.311
1146,1398,"CA","GERBER",1987,5,7,"Wildfire",37.513,-121.355
1147,1120,"CA","LAUREL",1987,8,30,"Wildfire",37.613,-118.914
1148,1823,"CA","LOST BEAR",1987,7,23,"Wildfire",37.666,-119.595
1149,49250,"CA","LARSON",1987,8,30,"Wildfire",37.732,-119.937
1150,39333,"CA","HAMM",1987,8,30,"Wildfire",37.796,-120.06
1151,1319,"CA","UNNAMED",1987,8,1,"Prescribed Fire",37.81,-119.591
1152,49296,"CA","PAPER",1987,8,31,"Wildfire",37.917,-120.132
1153,1756,"CA","JARREL",1987,9,3,"Wildfire",37.931,-119.877
1154,3451,"CA","FROG",1987,6,28,"Wildfire",38.019,-119.751
1155,6341,"CA","ACORN",1987,7,29,"Wildfire",38.789,-119.822
1156,1789,"CA","UNNAMED",1987,4,16,"Wildfire",38.958,-122.775
1157,1048,"CA","BIG",1987,8,31,"Wildfire",39.041,-120.558
1158,16892,"CA","FOUTS",1987,9,1,"Wildfire",39.353,-122.771
1159,2040,"CA","LAUDER",1987,9,29,"Wildfire",39.417,-123.075
1160,2130,"CA","PALMER",1987,8,29,"Wildfire",39.449,-120.764
1161,54162,"CA","MENDENHALL",1987,8,31,"Wildfire",39.542,-123.039
1162,8803,"CA","INDIAN",1987,8,29,"Wildfire",39.551,-120.968
1163,1285,"CA","BALLS CANYON 2",1987,6,13,"Wildfire",39.68,-120.062
1164,1234,"CA","ASSIST P.N.F.",1987,8,31,"Wildfire",39.683,-121.077
1165,1270,"CA","USFS 10",1987,6,13,"Wildfire",39.75,-120.178
1166,1497,"CA","LAZYMAN",1987,9,2,"Wildfire",40.091,-122.915
1167,11565,"CA","TRAVIS",1987,8,31,"Wildfire",40.092,-123.225
1168,39194,"CA","CLARK",1987,8,30,"Wildfire",40.108,-120.305
1169,12198,"CA","FLUME",1987,8,30,"Wildfire",40.404,-123.339
1170,3425,"CA","WALLOW",1987,8,30,"Wildfire",40.448,-123.398
1171,6064,"CA","PEANUT",1987,8,30,"Wildfire",40.483,-123.2
1172,3474,"CA","FRIENDLY",1987,8,30,"Wildfire",40.501,-123.307
1173,14801,"CA","COLD",1987,8,30,"Wildfire",40.527,-123.398
1174,3489,"CA","JESSIE",1987,8,30,"Wildfire",40.578,-123.467
1175,1522,"CA","BLAKE",1987,8,30,"Wildfire",40.588,-123.555
1176,1341,"CA","TRINITY",1987,8,30,"Wildfire",40.606,-123.388
1177,1135,"CA","BLACKS",1987,6,27,"Wildfire",40.624,-120.45
1178,5270,"CA","BEAR",1987,8,30,"Wildfire",40.654,-123.397
1179,6552,"CA","GULCH",1987,8,30,"Wildfire",40.658,-123.466
1180,23599,"CA","LOST",1987,8,31,"Wildfire",40.78,-121.426
1181,10532,"CA","EAST",1987,8,30,"Wildfire",40.837,-123.022
1182,3404,"CA","RIPSTEIN",1987,8,30,"Wildfire",40.902,-123.04
1183,6395,"CA","STRAUSE",1987,9,1,"Wildfire",40.993,-123.107
1184,9132,"CA","CHINA",1987,8,30,"Wildfire",41.054,-123.157
1185,8555,"CA","ST.CLAIRE",1987,8,30,"Wildfire",41.108,-123.191
1186,17616,"CA","HOTELLING",1987,8,30,"Wildfire",41.193,-123.289
1187,2463,"CA","DOE",1987,8,31,"Wildfire",41.198,-122.725
1188,13496,"CA","GLASGOW",1987,8,30,"Wildfire",41.239,-123.211
1189,1552,"CA","NIELON",1987,8,31,"Wildfire",41.351,-123.096
1190,3546,"CA","LIGHTNING 120 (CRANK)",1987,8,31,"Wildfire",41.397,-121.165
1191,53626,"CA","YELLOW 2",1987,8,30,"Wildfire",41.412,-123.316
1192,4417,"CA","QUAKING",1987,7,15,"Wildfire",41.465,-121.322
1193,71390,"CA","KING TITUS",1987,8,30,"Wildfire",41.638,-123.389
1194,3685,"CA","KELSEY",1987,8,30,"Wildfire",41.656,-123.144
1195,18425,"CA","LAKE",1987,9,1,"Wildfire",41.748,-123.18
1196,19635,"CA","TEN BALD",1987,8,30,"Wildfire",41.756,-123.526
1197,10973,"CA","GULCH",1987,8,30,"Wildfire",41.758,-123.284
1198,2860,"CA","BEARCAT",1987,8,30,"Wildfire",41.793,-122.831
1199,2941,"CA","CHINA",1987,8,30,"Wildfire",41.817,-123.274
1200,5845,"CA","SLATER",1987,8,30,"Wildfire",41.834,-123.348
1201,1451,"CA","ELK LICK",1987,8,30,"Wildfire",41.849,-123.551
1202,36333,"CA","FORT COPPER",1987,8,30,"Wildfire",41.898,-123.22
1203,5153,"CA","THOMPSON",1987,8,30,"Wildfire",41.93,-123.394
1204,10370,"CA","LONGWOOD",1987,8,30,"Wildfire",41.997,-123.634
1205,2857,"CO","AZTECTHREE",1987,7,5,"Wildfire",37.075,-108.861
1206,3839,"CO","BATTLEMENT",1987,7,7,"Wildfire",39.427,-108.004
1207,3085,"CO","GADFLY",1987,7,23,"Wildfire",40.273,-108.332
1208,2414,"CO","TANK",1987,8,20,"Wildfire",40.403,-108.818
1209,3464,"CO","SIERRA",1987,7,20,"Wildfire",40.516,-108.147
1210,1430,"FL","BLOCKS HJ",1987,8,4,"Prescribed Fire",25.403,-80.634
1211,1031,"FL","BLOCK C",1987,7,17,"Prescribed Fire",25.429,-80.706
1212,1279,"FL","UNNAMED",1987,1,24,"Unknown",25.623,-80.562
1213,1293,"FL","UNNAMED",1987,1,24,"Unknown",25.672,-80.517
1214,929,"FL","UNNAMED",1987,2,9,"Wildfire",25.721,-80.462
1215,836,"FL","UNNAMED",1987,4,14,"Wildfire",25.752,-80.437
1216,836,"FL","UNNAMED",1987,4,30,"Wildfire",25.752,-80.437
1217,2206,"FL","41 SOUTH1",1987,3,4,"Wildfire",25.88,-81.207
1218,1424,"FL","UNNAMED",1987,8,4,"Unknown",26.014,-80.413
1219,944,"FL","WD",1987,1,31,"Wildfire",26.161,-80.884
1220,1810,"FL","WALKER",1987,2,15,"Prescribed Fire",26.168,-81.304
1221,1333,"FL","UNNAMED",1987,8,4,"Unknown",26.284,-80.512
1222,1530,"FL","UNNAMED",1987,8,4,"Unknown",26.324,-80.353
1223,860,"FL","UNNAMED",1987,2,9,"Unknown",26.333,-81.105
1224,2286,"FL","UNNAMED",1987,8,4,"Unknown",26.51,-80.241
1225,1028,"FL","UNNAMED",1987,1,31,"Unknown",26.616,-81.426
1226,547,"FL","UNNAMED",1987,3,13,"Unknown",26.843,-80.421
1227,629,"FL","UNNAMED",1987,3,13,"Unknown",27.406,-80.728
1228,1215,"FL","UNNAMED",1987,3,13,"Unknown",27.797,-80.55
1229,2517,"FL","UNNAMED",1987,3,13,"Unknown",27.854,-80.562
1230,576,"FL","UNNAMED",1987,3,13,"Wildfire",27.897,-80.604
1231,1238,"FL","UNNAMED",1987,11,15,"Wildfire",28.607,-80.893
1232,653,"FL","UNNAMED",1987,11,15,"Wildfire",29.517,-81.482
1233,1144,"FL","UNNAMED",1987,4,28,"Unknown",29.863,-83.086
1234,1459,"FL","UNNAMED",1987,5,7,"Wildfire",30.041,-81.394
1235,1142,"GA","UNNAMED",1987,4,28,"Unknown",30.908,-82.85
1236,647,"GA","UNNAMED",1987,11,5,"Wildfire",33.935,-85.258
1237,697,"GA","UNNAMED",1987,11,5,"Wildfire",34.643,-84.765
1238,5598,"ID","SOB",1987,9,18,"Wildfire",41.999,-114.338
1239,2350,"ID","HOUSE CR",1987,9,20,"Wildfire",42.074,-115.008
1240,1286,"ID","UNNAMED",1987,9,10,"Wildfire",42.171,-111.716
1241,12043,"ID","HARRINGTON",1987,9,2,"Wildfire",42.3,-114.225
1242,1666,"ID","WOOD CAN",1987,10,10,"Wildfire",42.309,-111.115
1243,1107,"ID","ORENA",1987,6,30,"Wildfire",42.357,-114.426
1244,3857,"ID","BIG HILL",1987,6,14,"Wildfire",42.595,-115.779
1245,20833,"ID","INDIAN TUB",1987,6,14,"Wildfire",42.666,-115.731
1246,3661,"ID","LAKE CHANNEL",1987,6,5,"Wildfire",42.685,-113.289
1247,66024,"ID","BROWNS CRK",1987,6,14,"Wildfire",42.814,-115.496
1248,2188,"ID","CITY CREEK",1987,8,30,"Wildfire",42.826,-112.453
1249,1298,"ID","WILSON",1987,6,5,"Wildfire",42.881,-115.57
1250,1315,"ID","BLISS WEST",1987,6,15,"Wildfire",42.932,-115.008
1251,3650,"ID","C J SRIKE",1987,6,14,"Wildfire",42.972,-115.908
1252,5339,"ID","MP 101",1987,6,15,"Wildfire",43.05,-115.54
1253,8727,"ID","AIRBASE",1987,6,14,"Wildfire",43.108,-115.82
1254,1999,"ID","HOT CREEK",1987,6,15,"Wildfire",43.111,-115.486
1255,1698,"ID","RYE GRASS",1987,6,15,"Wildfire",43.12,-115.381
1256,7048,"ID","CRATER II",1987,6,14,"Wildfire",43.188,-115.846
1257,1083,"ID","DEER HAVEN",1987,9,1,"Wildfire",43.229,-115.206
1258,3114,"ID","GUNNERY",1987,6,15,"Wildfire",43.27,-116.034
1259,1318,"ID","INITIAL PT",1987,6,12,"Wildfire",43.344,-116.482
1260,11128,"ID","GUN CLUB",1987,6,15,"Wildfire",43.39,-116.083
1261,1513,"ID","SPRING CANYON",1987,9,26,"Wildfire",43.458,-111.203
1262,1991,"ID","BLACKS CK",1987,5,31,"Wildfire",43.481,-116.136
1263,1306,"ID","SO GOWEN",1987,7,4,"Wildfire",43.509,-116.204
1264,1400,"ID","PICKET PIN",1987,6,29,"Wildfire",43.619,-116.155
1265,1918,"ID","MINNEHA",1987,7,13,"Wildfire",43.725,-115.892
1266,1604,"ID","ANDERSON",1987,7,26,"Wildfire",43.872,-116.31
1267,2104,"ID","PETERSON",1987,7,15,"Wildfire",43.948,-116.268
1268,1938,"ID","PINE BUTTE",1987,9,24,"Wildfire",44.276,-111.831
1269,2867,"ID","UNNAMED",1987,9,29,"Wildfire",44.276,-111.999
1270,57051,"ID","DEADWOOD",1987,8,4,"Wildfire",44.484,-115.41
1271,3088,"ID","TAPPAN CREEK",1987,9,14,"Wildfire",44.884,-114.786
1272,6341,"ID","COVE",1987,9,12,"Wildfire",45.368,-115.563
1273,5221,"ID","ANCHOR",1987,9,2,"Wildfire",45.561,-115.863
1274,1533,"ID","BLODGETT",1987,9,1,"Wildfire",45.919,-114.446
1275,3130,"ID","BEAR 2",1987,10,5,"Wildfire",46.008,-114.802
1276,2024,"ID","UNNAMED",1987,10,1,"Wildfire",46.162,-114.872
1277,5165,"KS","UNNAMED",1987,4,9,"Unknown",38.426,-96.525
1278,12648,"KS","UNNAMED",1987,4,9,"Unknown",38.445,-96.592
1279,5140,"KS","UNNAMED",1987,4,9,"Unknown",39.254,-96.894
1280,1969,"KY","LAUREL RDG",1987,11,5,"Wildfire",36.605,-84.669
1281,6067,"KY","UNNAMED",1987,12,6,"Unknown",36.619,-83.876
1282,550,"KY","UNNAMED",1987,12,6,"Unknown",36.669,-83.988
1283,4400,"KY","UNNAMED",1987,12,6,"Unknown",36.705,-83.999
1284,2601,"KY","UNNAMED",1987,11,5,"Unknown",36.737,-83.396
1285,1062,"KY","UNNAMED",1987,11,5,"Unknown",36.79,-83.937
1286,662,"KY","UNNAMED",1987,11,5,"Unknown",36.805,-83.281
1287,5679,"KY","UNNAMED",1987,11,5,"Unknown",36.829,-83.699
1288,511,"KY","UNNAMED",1987,11,5,"Unknown",36.864,-83.296
1289,15138,"KY","UNNAMED",1987,11,5,"Unknown",36.881,-83.035
1290,2452,"KY","KNOX",1987,11,7,"Wildfire",36.932,-83.288
1291,11817,"KY","UNNAMED",1987,11,5,"Unknown",36.954,-83.801
1292,9084,"KY","UNNAMED",1987,11,5,"Unknown",36.968,-83.437
1293,1334,"KY","UNNAMED",1987,11,5,"Unknown",36.977,-83.039
1294,777,"KY","UNNAMED",1987,10,31,"Wildfire",37.047,-83.598
1295,3450,"KY","UNNAMED",1987,11,5,"Unknown",37.075,-83.241
1296,1088,"KY","UNNAMED",1987,11,5,"Unknown",37.11,-83.39
1297,743,"KY","UNNAMED",1987,11,1,"Wildfire",37.134,-83.479
1298,3888,"KY","UNNAMED",1987,11,5,"Unknown",37.196,-83.073
1299,4938,"KY","UNNAMED",1987,11,5,"Unknown",37.225,-83.339
1300,8099,"KY","UNNAMED",1987,11,5,"Unknown",37.264,-83.138
1301,9572,"KY","UNNAMED",1987,11,13,"Unknown",37.287,-82.537
1302,1636,"KY","UNNAMED",1987,11,5,"Unknown",37.322,-83.874
1303,584,"KY","UNNAMED",1987,11,5,"Wildfire",37.331,-83.521
1304,6014,"KY","LOCUST GAP",1987,10,30,"Wildfire",37.394,-83.561
1305,1679,"KY","UNNAMED",1987,11,5,"Unknown",37.408,-84.236
1306,8047,"KY","UNNAMED",1987,11,5,"Unknown",37.419,-83.005
1307,5426,"KY","UNNAMED",1987,11,5,"Unknown",37.419,-83.754
1308,66345,"KY","UNNAMED",1987,11,13,"Unknown",37.448,-82.743
1309,66145,"KY","UNNAMED",1987,11,5,"Unknown",37.459,-83.368
1310,32565,"KY","UNNAMED",1987,11,13,"Unknown",37.461,-82.312
1311,6456,"KY","UNNAMED",1987,11,5,"Unknown",37.474,-83.597
1312,4062,"KY","UNNAMED",1987,11,5,"Unknown",37.535,-82.897
1313,4418,"KY","UNNAMED",1987,11,5,"Unknown",37.56,-83.05
1314,940,"KY","UNNAMED",1987,11,5,"Unknown",37.563,-84.228
1315,2556,"KY","SPENCER RIDGE",1987,11,2,"Wildfire",37.582,-83.832
1316,13124,"KY","UNNAMED",1987,11,5,"Unknown",37.612,-82.871
1317,3401,"KY","UNNAMED",1987,11,5,"Unknown",37.626,-83.404
1318,4507,"KY","UNNAMED",1987,11,5,"Unknown",37.634,-83.031
1319,10817,"KY","UNNAMED",1987,11,5,"Unknown",37.677,-83.308
1320,4522,"KY","UNNAMED",1987,11,5,"Unknown",37.693,-82.998
1321,7281,"KY","UNNAMED",1987,11,5,"Unknown",37.78,-83.107
1322,38312,"KY","UNNAMED",1987,11,13,"Unknown",37.781,-82.524
1323,20994,"KY","UNNAMED",1987,11,5,"Unknown",37.785,-82.921
1324,6337,"KY","UNNAMED",1987,11,5,"Unknown",37.882,-83.119
1325,21562,"KY","UNNAMED",1987,11,13,"Unknown",37.895,-82.706
1326,2559,"KY","UNNAMED",1987,11,5,"Unknown",38.123,-82.88
1327,1683,"KY","UNNAMED",1987,11,5,"Unknown",38.133,-83.041
1328,979,"LA","UNNAMED",1987,9,4,"Unknown",29.768,-93.087
1329,1257,"LA","UNNAMED",1987,9,4,"Unknown",29.8,-92.856
1330,1364,"LA","UNNAMED",1987,9,4,"Unknown",29.822,-93.519
1331,829,"LA","UNNAMED",1987,9,4,"Unknown",29.837,-92.848
1332,1299,"LA","UNNAMED",1987,8,3,"Unknown",29.846,-93.663
1333,571,"LA","U4WF87.01",1987,7,24,"Wildfire",29.862,-93.553
1334,1585,"LA","U1WF87.03",1987,7,20,"Wildfire",29.923,-93.477
1335,753,"LA","UNNAMED",1987,9,4,"Unknown",29.975,-93.653
1336,2721,"LA","UNNAMED",1987,8,19,"Unknown",29.991,-93.709
1337,620,"LA","UNNAMED",1987,8,19,"Unknown",30.004,-93.743
1338,1952,"MI","OGEMAW22",1987,5,9,"Wildfire",44.491,-84.193
1339,520,"MI","KALKASKA17",1987,6,18,"Wildfire",44.608,-84.943
1340,3475,"MI","EIGHT MILE",1987,5,8,"Wildfire",46.114,-86.384
1341,943,"MI","SCHOOLCRAFT7",1987,5,8,"Wildfire",46.465,-86.136
1342,1655,"MN","UNNAMED",1987,4,1,"Wildfire",45.941,-94.205
1343,1009,"MN","UNNAMED",1987,3,17,"Wildfire",45.957,-93.827
1344,514,"MN","UNNAMED",1987,10,13,"Wildfire",45.974,-93.565
1345,520,"MN","UNNAMED",1987,3,20,"Wildfire",46.464,-94.719
1346,770,"MN","UNNAMED",1987,4,18,"Wildfire",46.505,-95.042
1347,884,"MN","UNNAMED",1987,3,22,"Wildfire",46.576,-93.579
1348,2512,"MN","UNNAMED",1987,3,16,"Wildfire",46.579,-93.304
1349,1096,"MN","UNNAMED",1987,4,22,"Wildfire",46.586,-93.367
1350,667,"MN","UNNAMED",1987,5,8,"Wildfire",46.603,-93.673
1351,1352,"MN","UNNAMED",1987,3,18,"Wildfire",46.656,-93.133
1352,1963,"MN","UNNAMED",1987,3,15,"Wildfire",46.789,-93.555
1353,1760,"MN","UNNAMED",1987,3,18,"Wildfire",46.798,-93.476
1354,1799,"MN","UNNAMED",1987,3,18,"Wildfire",46.828,-93.484
1355,1010,"MN","UNNAMED",1987,3,19,"Wildfire",46.838,-93.391
1356,1341,"MN","UNNAMED",1987,4,18,"Wildfire",47.329,-95.198
1357,26617,"MN","SANDY LAKE",1987,4,18,"Wildfire",47.945,-95.491
1358,131401,"MN","UNNAMED",1987,4,5,"Wildfire",48.098,-95.457
1359,965,"MN","UNNAMED",1987,4,21,"Wildfire",48.188,-95.68
1360,10819,"MN","UNNAMED",1987,4,12,"Wildfire",48.235,-95.989
1361,1116,"MN","UNNAMED",1987,4,25,"Wildfire",48.241,-95.653
1362,1337,"MN","UNNAMED",1987,4,18,"Wildfire",48.271,-95.698
1363,946,"MN","UNNAMED",1987,4,8,"Wildfire",48.293,-95.356
1364,9282,"MN","UNNAMED",1987,4,6,"Wildfire",48.32,-95.45
1365,1757,"MN","UNNAMED",1987,4,9,"Wildfire",48.365,-95.53
1366,619,"MN","UNNAMED",1987,4,21,"Wildfire",48.402,-95.69
1367,2609,"MN","UNNAMED",1987,4,3,"Wildfire",48.468,-95.375
1368,2836,"MN","UNNAMED",1987,4,26,"Wildfire",48.493,-96.149
1369,3376,"MN","UNNAMED",1987,4,9,"Wildfire",48.503,-94.501
1370,811,"MN","UNNAMED",1987,4,19,"Wildfire",48.539,-96.247
1371,3051,"MN","UNNAMED",1987,4,16,"Wildfire",48.58,-94.628
1372,2181,"MN","UNNAMED",1987,4,4,"Wildfire",48.66,-96.436
1373,799,"MN","UNNAMED",1987,10,14,"Wildfire",48.815,-94.857
1374,2169,"MN","UNNAMED",1987,5,5,"Wildfire",48.96,-96.547
1375,1237,"MO","BLUE",1987,3,14,"Wildfire",36.816,-92.071
1376,5601,"MS","MACHINE GUN",1987,12,4,"Wildfire",31.107,-89.12
1377,1017,"MS","UNNAMED",1987,11,7,"Wildfire",33.197,-88.974
1378,702,"MS","BROWNS",1987,11,7,"Wildfire",34.453,-88.429
1379,2339,"MT","MUD LAKE",1987,4,7,"Wildfire",45.668,-113.42
1380,1809,"MT","STERLING GULCH",1987,7,15,"Wildfire",48.254,-115.236
1381,3439,"NE","UNNAMED",1987,10,8,"Wildfire",41.475,-101.376
1382,1393,"NM","UNNAMED",1987,7,24,"Unknown",31.382,-108.648
1383,1982,"NM","MONUMENT",1987,8,14,"Wildfire",32.229,-103.11
1384,1325,"NM","UNNAMED",1987,8,20,"Unknown",32.667,-103.365
1385,1461,"NM","CHALK",1987,8,8,"Wildfire",32.693,-104.237
1386,1452,"NM","MARATHON",1987,8,6,"Wildfire",32.868,-103.478
1387,2345,"NM","ASPEN",1987,6,15,"Wildfire",32.979,-107.884
1388,1533,"NM","WELL",1987,1,30,"Wildfire",33.023,-104.682
1389,2020,"NM","FELIX",1987,7,30,"Wildfire",33.087,-104.462
1390,3152,"NM","UNNAMED",1987,7,8,"Unknown",33.175,-108.437
1391,9406,"NM","SYCAMORE",1987,6,12,"Wildfire",33.179,-108.355
1392,2359,"NM","TATUM",1987,11,30,"Wildfire",33.226,-103.274
1393,1315,"NM","MILLER",1987,6,13,"Wildfire",33.229,-108.385
1394,1483,"NM","HAYSTACK",1987,6,15,"Wildfire",33.249,-108.716
1395,1545,"NM","BLOOD",1987,6,16,"Wildfire",33.293,-107.955
1396,2420,"NM","HORSECAMP",1987,6,16,"Wildfire",33.513,-108.321
1397,1662,"NM","GWYNN",1987,10,7,"Wildfire",33.55,-108.516
1398,1292,"NM","GORDON",1987,6,14,"Wildfire",33.632,-108.852
1399,6306,"NV","ZIPPER",1987,6,12,"Wildfire",36.034,-115.546
1400,1727,"NV","TAFT CRK",1987,6,21,"Wildfire",39.33,-114.494
1401,4742,"NV","BASSET",1987,6,21,"Wildfire",39.412,-114.522
1402,3865,"NV","UHALDE",1987,7,12,"Wildfire",39.496,-115.197
1403,1070,"NV","BAILEY",1987,8,21,"Wildfire",40.228,-115.886
1404,3337,"NV","LINDSEY CREEK",1987,7,31,"Wildfire",40.232,-115.656
1405,5276,"NV","BULLION",1987,8,21,"Wildfire",40.541,-115.974
1406,14347,"NV","ROSE CREEK",1987,8,6,"Wildfire",40.799,-117.896
1407,3819,"NV","NDF 25",1987,9,2,"Wildfire",40.875,-116.525
1408,1746,"NV","LITTLE THORP",1987,8,22,"Wildfire",41.384,-115.917
1409,3447,"NV","KINGS FIRE",1987,9,12,"Wildfire",41.581,-118.249
1410,2675,"NV","COYOTE",1987,7,15,"Wildfire",41.611,-118.08
1411,2059,"NV","UC",1987,7,1,"Wildfire",41.772,-117.658
1412,1316,"NV","8 MILE",1987,8,13,"Wildfire",41.897,-117.695
1413,1207,"NV","MUSTANG",1987,9,12,"Wildfire",41.906,-114.4
1414,3130,"NV","EAST QUINN",1987,10,12,"Wildfire",41.962,-117.462
1415,8048,"NV","GULLY",1987,9,20,"Wildfire",41.971,-114.973
1416,1035,"NV","BIA 2",1987,4,14,"Wildfire",41.986,-117.733
1417,5183,"NV","TABLE PLATEAU",1987,8,21,"Wildfire",41.994,-115.739
1418,4580,"OR","10 MILE",1987,7,27,"Wildfire",42.049,-117.683
1419,2385,"OR","CANTRALL",1987,7,15,"Wildfire",42.143,-122.931
1420,1771,"OR","STAR GULCH",1987,8,30,"Wildfire",42.167,-123.087
1421,1869,"OR","NINEMILE",1987,8,30,"Wildfire",42.169,-123.197
1422,3182,"OR","KITTS MILL",1987,9,2,"Wildfire",42.289,-121.279
1423,96698,"OR","SILVER",1987,8,30,"Wildfire",42.362,-123.952
1424,1453,"OR","BLUE MTN",1987,7,30,"Wildfire",42.365,-117.827
1425,3884,"OR","SAVAGE CRK",1987,8,30,"Wildfire",42.365,-123.206
1426,2697,"OR","HOLEINGRND",1987,8,9,"Wildfire",42.429,-121.156
1427,4536,"OR","COWBOY",1987,8,31,"Wildfire",42.491,-121.627
1428,7274,"OR","JIMBO",1987,8,31,"Wildfire",42.53,-123.677
1429,10653,"OR","SYKES CRK",1987,8,30,"Wildfire",42.583,-123.082
1430,13473,"OR","HOWARD CRK",1987,8,30,"Wildfire",42.594,-123.694
1431,4931,"OR","E. SIDE BURNT PEAK",1987,8,30,"Wildfire",42.745,-122.678
1432,3096,"OR","ANGEL CAMP",1987,8,30,"Wildfire",42.749,-123.001
1433,1596,"OR","BUCK CR",1987,8,30,"Wildfire",42.812,-123.514
1434,1406,"OR","CATTERSON",1987,8,30,"Wildfire",42.825,-118.637
1435,5959,"OR","CANYON MT",1987,8,30,"Wildfire",42.883,-123.274
1436,10072,"OR","BLAND MTN",1987,7,15,"Wildfire",42.917,-123.075
1437,1703,"OR","WINTER RIM",1987,6,13,"Wildfire",42.935,-120.812
1438,2059,"OR","87732084",1987,8,30,"Wildfire",43.052,-123.211
1439,3182,"OR","FROZEN CR",1987,8,30,"Wildfire",43.103,-123.219
1440,1348,"OR","FLYBEE",1987,6,4,"Wildfire",43.104,-119.422
1441,3992,"OR","UPPER MYRTLE CREEK",1987,8,30,"Wildfire",43.15,-123.112
1442,3366,"OR","FALL CREEK",1987,8,30,"Wildfire",43.212,-123.084
1443,5295,"OR","HORSE MTN",1987,8,31,"Wildfire",43.228,-120.098
1444,2967,"OR","APPLE",1987,8,30,"Wildfire",43.282,-122.648
1445,1048,"OR","87791147",1987,5,8,"Wildfire",44.281,-122.556
1446,3614,"OR","CABOT CREEK",1987,9,1,"Wildfire",44.574,-121.751
1447,1166,"OR","87552212",1987,10,9,"Wildfire",44.795,-123.372
1448,5011,"OR","ROCKHOUSE",1987,10,18,"Wildfire",44.911,-123.49
1449,16269,"OR","RYDER CREEK",1987,8,15,"Wildfire",44.934,-118.618
1450,2789,"OR","EMIGRANT HILL",1987,8,22,"Wildfire",45.565,-118.635
1451,2555,"OR","HORN BU",1987,6,14,"Wildfire",45.668,-120.019
1452,3576,"SD","MISSION",1987,9,2,"Wildfire",43.091,-102.568
1453,2451,"SD","MANDER 8",1987,8,29,"Wildfire",43.25,-102.485
1454,11125,"SD","GRASS CK3",1987,9,26,"Wildfire",43.272,-102.594
1455,7150,"SD","COFFEE",1987,8,11,"Wildfire",43.285,-104.038
1456,9107,"SD","BIG FIRE",1987,9,26,"Wildfire",43.313,-100.841
1457,2478,"SD","BATTLE MTN",1987,7,23,"Wildfire",43.465,-103.439
1458,2602,"SD","BISON TRAP",1987,4,15,"Wildfire",43.62,-103.444
1459,1869,"SD","UNNAMED",1987,10,11,"Wildfire",45.687,-101.193
1460,1853,"TN","MORTON BLF",1987,11,8,"Wildfire",35.597,-84.002
1461,811,"TN","UNNAMED",1987,11,7,"Wildfire",35.823,-83.165
1462,11663,"TN","UNNAMED",1987,12,6,"Unknown",36.226,-84.383
1463,1536,"TN","HAMPTON",1987,11,5,"Wildfire",36.3,-82.165
1464,644,"TN","UNNAMED",1987,11,13,"Unknown",36.304,-82.032
1465,3854,"TN","UNNAMED",1987,12,6,"Unknown",36.353,-84.362
1466,1289,"TN","UNNAMED",1987,12,6,"Unknown",36.39,-84.47
1467,886,"TN","STONEY CREEK",1987,11,6,"Wildfire",36.399,-82.15
1468,5973,"TN","UNNAMED",1987,12,6,"Unknown",36.418,-84.272
1469,10327,"TN","UNNAMED",1987,12,6,"Unknown",36.478,-83.971
1470,4337,"TN","UNNAMED",1987,12,6,"Unknown",36.492,-83.858
1471,4194,"TN","UNNAMED",1987,12,6,"Unknown",36.506,-84.049
1472,1448,"TN","UNNAMED",1987,12,6,"Unknown",36.534,-84.153
1473,1913,"TN","UNNAMED",1987,12,6,"Unknown",36.549,-84.021
1474,993,"TN","UNNAMED",1987,11,13,"Unknown",36.557,-82.91
1475,3907,"TN","UNNAMED",1987,12,6,"Unknown",36.589,-84.04
1476,6372,"TN","K-T FIRE",1987,10,30,"Wildfire",36.591,-84.365
1477,2639,"TX","EAST",1987,8,20,"Wildfire",29.598,-94.445
1478,1081,"TX","CLAM LAKE",1987,7,18,"Wildfire",29.671,-94.092
1479,1368,"TX","UNNAMED",1987,9,4,"Unknown",30.243,-93.95
1480,1703,"TX","UNNAMED",1987,8,20,"Unknown",30.738,-103.708
1481,6788,"TX","UNNAMED",1987,8,20,"Unknown",30.805,-103.65
1482,3546,"UT","COYOTEPOND",1987,7,15,"Wildfire",38.07,-112.935
1483,10608,"UT","NEGRO MAG",1987,6,27,"Wildfire",38.508,-112.915
1484,1748,"UT","LITTLE OAK CREEK",1987,6,11,"Wildfire",39.367,-112.156
1485,1426,"UT","MT. BALDY",1987,9,25,"Wildfire",39.735,-111.561
1486,1336,"UT","MONA",1987,8,11,"Wildfire",39.915,-111.853
1487,2590,"UT","DAVISKNOLL",1987,9,15,"Wildfire",40.154,-112.651
1488,4479,"UT","POSTHOLLOW",1987,9,20,"Wildfire",40.297,-112.811
1489,1415,"UT","SQUAW CREEK",1987,8,5,"Wildfire",40.354,-111.677
1490,6584,"UT","WHITEROCKS",1987,6,14,"Wildfire",40.366,-112.772
1491,15174,"UT","QUINCY I",1987,9,12,"Wildfire",40.568,-113.047
1492,6068,"UT","RIPPLE",1987,6,15,"Wildfire",40.805,-113.044
1493,1049,"UT","DBL DECKER",1987,6,24,"Wildfire",40.869,-112.885
1494,1055,"VA","UNNAMED",1987,11,13,"Unknown",36.621,-82.999
1495,3789,"VA","UNNAMED",1987,11,5,"Unknown",36.735,-83.202
1496,5872,"VA","SAMS BRANCH",1987,11,3,"Wildfire",37.304,-81.395
1497,2038,"VA","UNNAMED",1987,11,5,"Wildfire",37.594,-80.118
1498,2109,"WA","BENTON",1987,8,23,"Wildfire",46.224,-119.466
1499,3351,"WA","DRILLING",1987,9,3,"Wildfire",46.355,-119.479
1500,9453,"WA","LAMBING",1987,7,15,"Wildfire",46.551,-119.942
1501,7922,"WA","MONSE",1987,10,3,"Wildfire",48.26,-119.673
1502,750,"WI","FOULDS CREEK",1987,4,20,"Wildfire",45.835,-90.094
1503,4879,"WV","KIWIS CREEK",1987,11,6,"Wildfire",37.248,-81.682
1504,1122,"WV","WAR",1987,11,8,"Wildfire",37.285,-81.682
1505,1566,"WV","SLATE CREEK",1987,11,9,"Wildfire",37.294,-81.72
1506,1887,"WV","WOLFPEN BRANCH",1987,11,2,"Wildfire",37.317,-81.844
1507,3490,"WV","SOUTH FORK OF TUG RIVER",1987,11,6,"Wildfire",37.323,-81.456
1508,2658,"WV","RAYSAL",1987,11,7,"Wildfire",37.324,-81.764
1509,940,"WV","BEARTOWN BRANCH",1987,11,3,"Wildfire",37.393,-81.822
1510,726,"WV","WHETSTONE BRANCH",1987,10,30,"Wildfire",37.426,-81.878
1511,695,"WV","PANTHER CREEK",1987,11,5,"Wildfire",37.451,-81.899
1512,1130,"WV","BROWNS CREEK",1987,11,8,"Wildfire",37.467,-81.569
1513,661,"WV","SNIPE BRANCH",1987,11,5,"Wildfire",37.47,-81.757
1514,966,"WV","DAVY BRANCH",1987,11,2,"Wildfire",37.491,-81.64
1515,4022,"WV","SANDY HUFF BRANCH",1987,11,8,"Wildfire",37.499,-81.741
1516,1146,"WV","WAR BRANCH",1987,11,3,"Wildfire",37.505,-81.821
1517,1216,"WV","FOURPOLE CREEK",1987,11,6,"Wildfire",37.51,-81.878
1518,3198,"WV","NANCY FORK",1987,11,2,"Wildfire",37.527,-81.542
1519,2147,"WV","UNNAMED",1987,11,13,"Unknown",37.577,-81.865
1520,1918,"WV","ALLEN JCT.",1987,11,5,"Wildfire",37.6,-81.372
1521,41794,"WV","UNNAMED",1987,11,13,"Unknown",37.614,-82.137
1522,5048,"WV","UNNAMED",1987,11,13,"Unknown",37.681,-81.926
1523,2822,"WV","UPPER STURGEON BRANCH",1987,11,4,"Wildfire",37.688,-81.71
1524,4830,"WV","CHRISTAN BRANCH",1987,11,2,"Wildfire",37.702,-81.828
1525,8864,"WV","PINE CREEK",1987,11,3,"Wildfire",37.73,-82.063
1526,664,"WV","HUFF MOUNTAIN",1987,11,10,"Wildfire",37.731,-81.652
1527,5265,"WV","DAVIN CREEK",1987,11,2,"Wildfire",37.743,-81.817
1528,1733,"WV","BEECH BRANCH",1987,11,8,"Wildfire",37.748,-81.731
1529,27317,"WV","UNNAMED",1987,11,13,"Unknown",37.752,-82.243
1530,4040,"WV","HENRY HOLLOW",1987,11,5,"Wildfire",37.781,-81.905
1531,3582,"WV","TONEY FORK",1987,11,4,"Wildfire",37.803,-81.645
1532,3869,"WV","MADISON",1987,11,15,"Wildfire",37.807,-81.714
1533,925,"WV","ROCK LICK BRANCH",1987,11,16,"Wildfire",37.825,-81.619
1534,1424,"WV","UNNAMED",1987,11,13,"Unknown",37.836,-81.986
1535,953,"WV","JASPER WORKMAN BRANCH",1987,11,5,"Wildfire",37.848,-81.64
1536,1138,"WV","SPRUCE MTN. ROAD",1987,11,8,"Wildfire",37.85,-81.31
1537,3992,"WV","SPRUCE FORK",1987,11,1,"Wildfire",37.9,-81.804
1538,4802,"WV","PEACH CREEK",1987,11,4,"Wildfire",37.903,-81.95
1539,24070,"WV","ELLIS CREEK",1987,11,5,"Wildfire",37.908,-81.464
1540,1131,"WV","COW CREEK",1987,11,7,"Wildfire",37.909,-81.694
1541,61231,"WV","BRUSHY",1987,11,7,"Wildfire",37.911,-82.137
1542,14554,"WV","UNNAMED",1987,11,13,"Unknown",37.927,-82.304
1543,4065,"WV","ELK RUN",1987,11,3,"Wildfire",37.943,-81.582
1544,4393,"WV","SUMMER FORK",1987,11,3,"Wildfire",37.949,-82.45
1545,859,"WV","GARRETT FORK",1987,11,3,"Wildfire",37.981,-81.973
1546,1078,"WV","FRANCES CREEK",1987,11,7,"Wildfire",38.011,-82.208
1547,5592,"WV","HUNTERS BRANCH",1987,11,3,"Wildfire",38.022,-81.799
1548,7029,"WV","MILL CREEK ROAD",1987,11,3,"Wildfire",38.022,-82.447
1549,1578,"WV","LITTLE HARTS",1987,11,3,"Wildfire",38.023,-82.151
1550,1772,"WV","UNNAMED",1987,11,13,"Unknown",38.026,-82.027
1551,1770,"WV","KIAHS CREEK",1987,11,5,"Wildfire",38.05,-82.237
1552,747,"WV","HURRICAN BRANCH",1987,11,6,"Wildfire",38.051,-82.267
1553,14744,"WV","RUCKERS BRANCH",1987,11,4,"Wildfire",38.064,-81.757
1554,3391,"WV","TENMILE FORK OF CABIN CREEK",1987,11,9,"Wildfire",38.067,-81.503
1555,1760,"WV","TRACE BRANCH",1987,11,2,"Wildfire",38.08,-82.233
1556,568,"WV","EAST FORK 14-MILE",1987,11,6,"Wildfire",38.089,-82.173
1557,6223,"WV","PLUM BRANCH",1987,11,5,"Wildfire",38.114,-82.262
1558,2192,"WV","NEW RIVER",1987,11,2,"Wildfire",38.121,-81.166
1559,6340,"WV","JOES BRANCH",1987,11,3,"Wildfire",38.124,-81.566
1560,5862,"WV","TUCKER HOLLOW",1987,11,6,"Wildfire",38.131,-81.355
1561,734,"WV","HONEYCAMP FORK",1987,11,4,"Wildfire",38.143,-81.736
1562,1388,"WV","UNNAMED",1987,11,13,"Unknown",38.145,-82.036
1563,950,"WV","GREENBRIAR CREEK",1987,11,2,"Wildfire",38.154,-82.486
1564,2143,"WV","PAINT BRANCH",1987,11,5,"Wildfire",38.155,-81.415
1565,791,"WV","WET BRANCH",1987,11,7,"Wildfire",38.162,-81.458
1566,2302,"WV","UNNAMED",1987,11,13,"Unknown",38.163,-82.448
1567,7740,"WV","RICK CREEK ROAD",1987,10,30,"Wildfire",38.173,-81.098
1568,902,"WV","SCABBLE CREEK",1987,11,7,"Wildfire",38.181,-81.206
1569,3609,"WV","LENS CREEK",1987,11,2,"Wildfire",38.197,-81.642
1570,5080,"WV","BULL CREEK",1987,11,1,"Wildfire",38.221,-81.724
1571,1565,"WV","LITTLE COAL RIVER",1987,11,3,"Wildfire",38.236,-81.794
1572,1174,"WV","ELK HOLLOW",1987,11,6,"Wildfire",38.27,-81.064
1573,1186,"WV","COAL FORK",1987,11,8,"Wildfire",38.293,-81.505
1574,742,"WV","SYCAMORE",1987,11,2,"Wildfire",38.321,-81.132
1575,1616,"WY","TRUMAN",1987,9,13,"Wildfire",41.777,-110.921
1576,86445,"AK","804028",1988,7,12,"Wildfire",62.361,-156.284
1577,25615,"AK","804037",1988,7,12,"Wildfire",63.659,-156.473
1578,59693,"AK","832097",1988,7,12,"Wildfire",63.798,-157.142
1579,25914,"AK","831024",1988,7,13,"Wildfire",64.006,-157.65
1580,2945,"AK","GAL N 35",1988,5,29,"Wildfire",65.215,-156
1581,16100,"AK","832083",1988,7,15,"Wildfire",65.944,-155.473
1582,294208,"AK","832604",1988,6,29,"Wildfire",65.996,-145.791
1583,4079,"AK","CEM NW 25",1988,6,27,"Wildfire",66,-145.13
1584,8656,"AK","832061",1988,7,6,"Wildfire",66.055,-156.67
1585,10697,"AK","DCK S 25",1988,7,13,"Wildfire",66.526,-156.257
1586,11687,"AK","832102",1988,8,1,"Wildfire",66.564,-147.086
1587,5284,"AK","832054",1988,6,30,"Wildfire",66.789,-144.932
1588,77975,"AK","832043",1988,6,15,"Wildfire",66.911,-144.662
1589,6817,"AK","FYU NE 22",1988,7,4,"Wildfire",66.935,-145.022
1590,4186,"AK","FYU NE 22",1988,6,30,"Wildfire",66.971,-145.061
1591,132518,"AK","FYU NE 50",1988,6,27,"Wildfire",67.056,-143.769
1592,23571,"AK","832086",1988,7,16,"Wildfire",67.198,-144.932
1593,14168,"AK","ARC SE 32",1988,7,14,"Wildfire",68.009,-144.09
1594,16078,"AZ","PEAK",1988,6,10,"Wildfire",31.362,-110.255
1595,2762,"AZ","SADDLE GAP",1988,6,4,"Wildfire",31.392,-109.434
1596,1753,"AZ","BIG BERTHA",1988,3,26,"Wildfire",31.566,-111.549
1597,1021,"AZ","ARROYO",1988,3,26,"Wildfire",31.579,-111.534
1598,1441,"AZ","UNNAMED",1988,5,21,"Unknown",31.635,-111.49
1599,1310,"AZ","MAY",1988,5,16,"Wildfire",31.712,-109.199
1600,1048,"AZ","FRENCH",1988,6,3,"Wildfire",31.823,-110.384
1601,1447,"AZ","BUCKHORN",1988,4,11,"Wildfire",33.765,-111.749
1602,9025,"AZ","JACKET",1988,7,2,"Wildfire",33.783,-111.562
1603,3439,"AZ","PINNACLE",1988,6,26,"Wildfire",33.783,-111.758
1604,2651,"AZ","UNNAMED",1988,6,13,"Unknown",33.859,-111.812
1605,2298,"AZ","CEDAR",1988,6,16,"Wildfire",34.099,-111.769
1606,1204,"AZ","UNNAMED",1988,7,15,"Unknown",34.391,-111.909
1607,1785,"AZ","UNNAMED",1988,5,28,"Unknown",34.413,-112.289
1608,1107,"AZ","UNNAMED",1988,6,29,"Unknown",34.457,-112.1
1609,1138,"AZ","UNNAMED",1988,7,15,"Unknown",34.505,-111.934
1610,4851,"AZ","MEAD",1988,6,4,"Wildfire",36.27,-113.835
1611,3361,"AZ","DUTTON",1988,7,9,"Wildfire",36.3,-112.386
1612,4303,"AZ","PAKOON",1988,7,25,"Wildfire",36.323,-113.849
1613,1170,"AZ","UNNAMED",1988,8,7,"Unknown",36.387,-113.819
1614,3336,"AZ","WILDERNESS",1988,6,16,"Wildfire",36.447,-113.805
1615,1025,"CA","ASSIST 78",1988,9,3,"Wildfire",32.821,-117.034
1616,1393,"CA","UNNAMED",1988,6,2,"Wildfire",33.357,-116.823
1617,2262,"CA","UNNAMED",1988,6,2,"Wildfire",33.446,-117.488
1618,2269,"CA","ORTEGA",1988,8,30,"Wildfire",33.508,-117.605
1619,1367,"CA","BENTON",1988,9,9,"Wildfire",33.604,-117.057
1620,1587,"CA","UNNAMED",1988,6,2,"Wildfire",33.626,-116.734
1621,1063,"CA","EL TORRO",1988,12,9,"Wildfire",33.738,-117.369
1622,4037,"CA","STAGECOACH",1988,9,4,"Wildfire",33.781,-117.123
1623,1871,"CA","PASS",1988,8,17,"Wildfire",33.904,-116.837
1624,1523,"CA","UNNAMED",1988,7,4,"Unknown",33.961,-116.578
1625,7372,"CA","TEXAS",1988,9,28,"Wildfire",34.188,-117.49
